     3.04           OBSERVATION DATA    G: GPS              RINEX VERSION / TYPE
                                                            PGM / RUN BY / DATE 
                                                            MARKER NAME         
                                                            MARKER NUMBER       
                                                            MARKER TYPE         
                                                            OBSERVER / AGENCY   
                                                            REC # / TYPE / VERS 
                                                            ANT # / TYPE        
  3740902.9717  1152328.6273  5018970.7383                  APPROX POSITION XYZ 
        0.0000        0.0000        0.0000                  ANTENNA: DELTA H/E/N
G    8 C1C L1C D1C S1C C2X L2X D2X S2X                      SYS / # / OBS TYPES 
  2024    03    07    00    53   01.0000000     GPS         TIME OF FIRST OBS   
  2024    03    07    01    03   51.0000000     GPS         TIME OF LAST OBS    
G L1C                                                       SYS / PHASE SHIFT   
G L2X  0.00000                                              SYS / PHASE SHIFT   
  0                                                         GLONASS SLOT / FRQ #
                                                            GLONASS COD/PHS/BIS 
                                                            END OF HEADER       
> 2024 03 07 00 53 01.0000000  0 11                     
G04  21548635.724   113238836.9801      -2746.270          45.000    21548628.027    88238028.865       -2139.969          42.000  
G06  21409814.351   112509324.532       -1979.763          46.000    21409809.345    87669588.4301      -1542.576          43.000  
G07  22295652.482   117164434.668        2399.981          46.000    22295644.107    91296934.457        1870.218          39.000  
G09  19996789.098   105083828.3851       -285.881          49.000    19996782.584    81883482.3811       -222.871          44.000  
G11  22050217.806   115874668.439         617.531          44.000    22050209.546    90291920.7611        480.827          42.000  
G16  23480467.907   123390679.928        1182.854          43.000                                                                  
G20  23352467.147   122718031.865        3012.469          42.000                                                                  
G26  23847793.975   125320989.151       -1332.697          44.000    23847784.583                       -1038.672          29.000  
G29  25383945.744   133393524.2401        899.009          40.000    25383938.032   103942959.589         701.151          36.000  
G30  24737152.654   129994602.9481       3394.050          42.000    24737150.544                        2644.881          29.000  
G03  24094589.605   126617916.499       -3902.989          37.000                                                                  
> 2024 03 07 00 53 02.0000000  0 11                     
G04  21549158.396   113241583.298       -2746.503          45.000    21549150.660    88240168.855       -2140.273          42.000  
G06  21410191.119   112511304.457       -1980.477          46.000    21410185.977    87671131.231       -1543.214          43.000  
G07  22295195.867   117162034.796        2399.641          46.000    22295187.455    91295064.433        1869.740          39.000  
G09  19996843.543   105084114.545        -286.511          49.000    19996837.076    81883705.368        -223.326          44.000  
G11  22050100.349   115874051.245         616.794          44.000    22050092.107    90291439.818         480.601          42.000  
G16  23480242.827   123389497.441        1182.146          43.000                                                                  
G20  23351893.983   122715019.602        3012.132          42.000                                                                  
G26  23848047.501   125322322.134       -1333.307          44.000    23848038.728    97653689.105       -1038.867          29.000  
G29  25383774.652   133392625.644         898.397          40.000    25383767.119   103942259.446         699.608          36.000  
G30  24736506.793   129991208.787        3393.824          41.000    24736504.421   101291711.653        2644.682          29.000  
G03  24095332.429   126621819.629       -3903.307          37.000                                                                  
> 2024 03 07 00 53 03.0000000  0 11                     
G04  21549681.108   113244330.083       -2746.914          45.000    21549673.415    88242309.210       -2140.497          41.000  
G06  21410567.950   112513285.183       -1981.069          46.000    21410562.903    87672674.643       -1543.532          43.000  
G07  22294739.238   117159635.472        2398.980          46.000    22294730.948    91293194.827        1869.254          39.000  
G09  19996898.181   105084401.360        -286.980          49.000    19996891.660    81883928.861        -223.709          44.000  
G11  22049983.170   115873434.909         615.822          44.000    22049974.884    90290959.556         479.848          42.000  
G16  23480017.968   123388315.761        1181.470          42.000                                                                  
G20  23351320.761   122712007.703        3011.508          42.000                                                                  
G26  23848301.334   125323655.927       -1333.954          44.000    23848292.730    97654728.462       -1039.642          29.000  
G29  25383603.755   133391727.837         897.549          40.000    25383596.221   103941559.829         699.903          36.000  
G30  24735860.885   129987814.858        3393.927          41.000    24735856.941   101289067.032        2644.960          29.000  
G03  24096075.161   126625723.102       -3903.498          37.000                                                                  
> 2024 03 07 00 53 04.0000000  0 11                     
G04  21550203.820   113247077.293       -2747.408          45.000    21550196.179    88244449.879       -2140.740          42.000  
G06  21410945.065   112515266.640       -1981.740          45.000    21410939.951    87674218.653       -1544.314          43.000  
G07  22294282.672   117157236.605        2398.627          46.000    22294274.526    91291325.572        1869.406          39.000  
G09  19996952.947   105084688.783        -287.593          49.000    19996946.323    81884152.827        -224.241          44.000  
G11  22049865.985   115872819.353         615.274          44.000    22049857.796    90290479.907         479.328          42.000  
G16  23479793.243   123387134.839        1180.626          42.000                                                                  
G20  23350747.756   122708996.106        3011.521          42.000                                                                  
G26  23848555.281   125324990.491       -1334.790          44.000    23848547.524    97655768.393       -1040.546          29.000  
G29  25383433.097   133390830.771         896.637          40.000    25383425.655   103940860.803         698.930          36.000  
G30  24735215.079   129984421.141        3393.625          41.000    24735209.505   101286422.591        2644.517          29.000  
G03  24096818.050   126629626.827       -3903.757          37.000                                                                  
> 2024 03 07 00 53 05.0000000  0 11                     
G04  21550726.655   113249824.933       -2748.171          45.000    21550719.043    88246590.897       -2141.354          42.000  
G06  21411322.321   112517248.879       -1982.834          45.000    21411317.185    87675763.259       -1545.278          43.000  
G07  22293826.323   117154838.258        2397.867          46.000    22293818.104    91289456.730        1868.629          39.000  
G09  19997007.831   105084976.841        -288.722          49.000    19997001.165    81884377.272        -224.834          44.000  
G11  22049749.076   115872204.633         614.080          44.000    22049740.693    90290000.899         478.569          42.000  
G16  23479568.654   123385954.690        1179.595          42.000                                                                  
G20  23350174.630   122705984.850        3011.073          42.000                                                                  
G26  23848809.317   125326325.858       -1335.834          44.000    23848802.257    97656808.881       -1040.741          29.000  
G29  25383262.534   133389934.442         895.728          40.000    25383255.155   103940162.380         697.780          36.000  
G30  24734569.341   129981027.630        3393.154          41.000    24734564.392   101283778.338        2643.848          29.000  
G03  24097561.070   126633530.863       -3904.540          37.000                                                                  
> 2024 03 07 00 53 06.0000000  0 11                     
G04  21551249.585   113252573.028       -2748.398          45.000    21551241.978    88248732.283       -2141.610          42.000  
G06  21411699.619   112519231.905       -1983.433          45.000    21411694.588    87677308.458       -1545.562          43.000  
G07  22293370.028   117152440.423        2397.442          46.000    22293361.752    91287588.292        1868.073          39.000  
G09  19997062.759   105085265.536        -289.016          49.000    19997056.102    81884602.246        -225.391          44.000  
G11  22049632.152   115871590.755         613.493          45.000    22049623.945    90289522.555         478.183          42.000  
G16  23479344.153   123384775.346        1178.996          42.000                                                                  
G20  23349601.636   122702973.959        3010.646          42.000                                                                  
G26  23849063.559   125327662.035       -1336.591          44.000    23849056.711    97657850.071       -1041.370          29.000  
G29  25383092.172   133389038.877         895.286          40.000    25383084.830   103939464.552         697.330          36.000  
G30  24733923.674   129977634.378        3393.303          41.000    24733918.148   101281134.235        2644.131          29.000  
G03  24098304.113   126637435.209       -3904.646          37.000                                                                  
> 2024 03 07 00 53 07.0000000  0 11                     
G04  21551772.701   113255321.546       -2748.711          45.000    21551765.030    88250873.963       -2141.642          42.000  
G06  21412077.117   112521215.680       -1984.164          45.000    21412072.032    87678854.253       -1546.099          43.000  
G07  22292913.910   117150043.059        2397.153          46.000    22292905.524    91285720.219        1867.950          39.000  
G09  19997117.761   105085554.838        -289.588          49.000    19997111.205    81884827.665        -225.580          44.000  
G11  22049515.539   115870977.683         612.640          45.000    22049507.338    90289044.837         477.457          42.000  
G16  23479119.829   123383596.779        1178.093          43.000                                                                  
G20  23349028.673   122699963.373        3010.629          42.000                                                                  
G26  23849317.965   125328999.001       -1337.482          44.000    23849311.170    97658891.875       -1042.017          29.000  
G29  25382921.893   133388144.037         894.715          40.000    25382914.532   103938767.272         696.916          36.000  
G30  24733278.029   129974241.330        3393.125          41.000    24733272.388   101278490.291        2643.660          29.000  
G03  24099047.100   126641339.834       -3904.859          37.000                                                                  
> 2024 03 07 00 53 08.0000000  0 11                     
G04  21552295.780   113258070.678       -2749.136          45.000    21552288.128    88253016.158       -2142.162          42.000  
G06  21412454.746   112523200.408       -1984.927          45.000    21412449.708    87680400.794       -1546.641          43.000  
G07  22292457.920   117147646.388        2396.573          46.000    22292449.414    91283852.676        1867.430          39.000  
G09  19997172.979   105085844.953        -290.150          49.000    19997166.462    81885053.730        -226.131          44.000  
G11  22049398.993   115870365.618         611.877          45.000    22049390.802    90288567.906         476.572          42.000  
G16  23478895.624   123382419.154        1177.484          43.000                                                                  
G20  23348455.939   122696953.313        3010.290          42.000                                                                  
G26  23849572.507   125330336.929       -1338.135          44.000    23849566.399    97659934.445       -1042.700          29.000  
G29  25382751.813   133387250.150         893.762          41.000    25382744.487   103938070.740         696.320          36.000  
G30  24732632.407   129970848.681        3392.665          41.000    24732626.760   101275846.645        2643.816          29.000  
G03  24099790.195   126645244.912       -3904.978          37.000                                                                  
> 2024 03 07 00 53 09.0000000  0 11                     
G04  21552819.092   113260820.203       -2749.968          45.000    21552811.344    88255158.633       -2142.503          42.000  
G06  21412832.578   112525185.850       -1985.988          45.000    21412827.473    87681947.892       -1547.452          43.000  
G07  22292001.956   117145250.165        2395.804          46.000    22291993.430    91281985.500        1866.732          39.000  
G09  19997228.260   105086135.650        -291.061          49.000    19997221.763    81885280.253        -226.890          44.000  
G11  22049282.601   115869754.323         610.743          45.000    22049274.486    90288091.563         476.059          42.000  
G16  23478671.634   123381242.273        1176.328          43.000                                                                  
G20  23347883.240   122693943.525        3009.781          42.000                                                                  
G26  23849827.241   125331675.584       -1339.050          44.000    23849822.445    97660977.552       -1043.146          29.000  
G29  25382581.950   133386356.944         892.763          41.000    25382574.550   103937374.748         695.483          36.000  
G30  24731986.791   129967456.182        3392.365          42.000    24731981.223   101273203.189        2642.763          29.000  
G03  24100533.388   126649150.261       -3905.784          37.000                                                                  
> 2024 03 07 00 53 10.0000000  0 11                     
G04  21553342.386   113263570.259       -2750.106          45.000    21553334.592    88257301.538       -2142.922          42.000  
G06  21413210.556   112527172.181       -1986.763          45.000    21413205.446    87683495.683       -1548.187          43.000  
G07  22291546.118   117142854.546        2395.360          46.000    22291537.483    91280118.780        1866.782          39.000  
G09  19997283.653   105086427.089        -291.646          49.000    19997277.181    81885507.346        -227.382          44.000  
G11  22049166.440   115869143.962         609.816          45.000    22049158.293    90287615.971         475.121          42.000  
G16  23478447.970   123380066.270        1175.579          43.000                                                                  
G20  23347310.595   122690934.200        3009.112          42.000                                                                  
G26  23850082.211   125333015.171       -1340.277          44.000    23850074.896    97662021.350       -1044.189          30.000  
G29  25382412.187   133385464.607         891.819          41.000    25382404.518   103936679.414         694.812          36.000  
G30  24731341.262   129964064.054        3392.054          42.000    24731335.926   101270559.973        2642.822          29.000  
G03  24101276.636   126653055.968       -3905.781          37.000                                                                  
> 2024 03 07 00 53 11.0000000  0 11                     
G04  21553865.749   113266320.868       -2750.790          45.000    21553858.042    88259444.875       -2143.525          42.000  
G06  21413588.753   112529159.371       -1987.720          46.000    21413583.652    87685044.155       -1549.143          43.000  
G07  22291090.311   117140459.523        2394.926          46.000    22291081.708    91278252.539        1865.870          39.000  
G09  19997339.323   105086719.247        -292.487          49.000    19997332.719    81885735.002        -227.904          44.000  
G11  22049050.541   115868534.523         608.896          45.000    22049042.341    90287141.076         474.461          42.000  
G16  23478224.336   123378891.152        1174.837          42.000                                                                  
G20  23346737.987   122687925.297        3008.540          42.000                                                                  
G26  23850337.304   125334355.625       -1340.961          44.000    23850333.639    97663065.873       -1044.727          30.000  
G29  25382242.615   133384573.114         891.006          40.000    25382234.871   103935984.759         694.077          36.000  
G30  24730695.780   129960672.217        3391.591          41.000    24730690.336   101267916.953        2642.824          29.000  
G03  24102019.941   126656962.110       -3906.109          37.000                                                                  
> 2024 03 07 00 53 12.0000000  0 11                     
G04  21554389.316   113269071.998       -2751.157          45.000    21554381.566    88261588.612       -2143.685          42.000  
G06  21413967.039   112531147.410       -1988.427          46.000    21413961.967    87686593.266       -1549.454          43.000  
G07  22290634.738   117138065.095        2394.365          46.000    22290626.028    91276386.730        1866.000          40.000  
G09  19997395.112   105087012.136        -292.991          49.000    19997388.476    81885963.224        -228.293          44.000  
G11  22048934.763   115867925.996         608.232          45.000    22048926.513    90286666.896         473.975          42.000  
G16  23478000.888   123377716.897        1174.208          42.000                                                                  
G20  23346165.434   122684916.819        3008.563          42.000                                                                  
G26  23850592.690   125335696.977       -1341.565          44.000    23850589.730    97664111.068       -1045.215          30.000  
G29  25382073.113   133383682.473         890.210          40.000    25382065.381   103935290.759         693.162          36.000  
G30  24730050.364   129957280.698        3391.406          41.000    24730045.054   101265274.194        2643.026          29.000  
G03  24102763.350   126660868.620       -3906.393          37.000                                                                  
> 2024 03 07 00 53 13.0000000  0 11                     
G04  21554912.980   113271823.644       -2751.797          45.000    21554905.080    88263732.740       -2144.116          42.000  
G06  21414345.578   112533136.310       -1989.304          46.000    21414340.537    87688143.060       -1550.150          43.000  
G07  22290179.223   117135671.240        2393.686          46.000    22290170.579    91274521.401        1865.178          40.000  
G09  19997451.082   105087305.723        -293.833          49.000    19997444.411    81886191.991        -228.902          44.000  
G11  22048819.049   115867318.379         607.117          44.000    22048810.913    90286193.419         473.098          42.000  
G16  23477777.703   123376543.503        1173.270          42.000                                                                  
G20  23345592.892   122681908.754        3008.191          42.000                                                                  
G26  23850848.143   125337039.192       -1342.468          44.000    23850843.304    97665156.986       -1046.228          30.000  
G29  25381903.788   133382792.626         889.462          40.000    25381895.956   103934597.337         693.730          36.000  
G30  24729405.127   129953889.473        3391.192          41.000    24729399.713   101262631.698        2642.110          29.000  
G03  24103506.877   126664775.488       -3906.656          37.000    24103500.550    98699804.9442      -3044.850          38.000  
> 2024 03 07 00 53 14.0000000  0 11                     
G04  21555436.737   113274575.753       -2752.302          45.000    21555428.848    88265877.255       -2144.712          42.000  
G06  21414724.178   112535125.991       -1990.018          46.000    21414719.169    87689693.464       -1550.792          43.000  
G07  22289723.766   117133277.907        2393.166          46.000    22289715.143    91272656.487        1864.516          39.000  
G09  19997507.072   105087599.963        -294.543          49.000    19997500.406    81886421.263        -229.385          44.000  
G11  22048703.609   115866711.590         606.347          44.000    22048695.497    90285720.594         472.566          42.000  
G16  23477554.605   123375370.926        1172.252          42.000                                                                  
G20  23345020.545   122678901.069        3007.435          42.000                                                                  
G26  23851103.739   125338382.245       -1343.445          44.000    23851099.275    97666203.421       -1045.581          29.000  
G29  25381734.568   133381903.581         888.853          40.000    25381726.861   103933904.597         692.199          36.000  
G30  24728759.827   129950498.507        3390.993          42.000    24728754.518   101259989.391        2642.350          29.000  
G03  24104250.374   126668682.706       -3907.313          37.000    24104245.191    98702854.514       -3044.594          37.000  
> 2024 03 07 00 53 15.0000000  0 11                     
G04  21555960.516   113277328.200       -2752.595          45.000    21555952.702    88268022.028       -2145.053          42.000  
G06  21415102.895   112537116.358       -1990.708          46.000    21415097.868    87691244.385       -1550.903          43.000  
G07  22289268.356   117130884.994        2392.625          46.000    22289259.828    91270791.859        1864.519          39.000  
G09  19997563.103   105087894.743        -295.060          49.000    19997556.456    81886650.968        -229.810          44.000  
G11  22048588.262   115866105.536         605.629          44.000    22048580.130    90285248.358         471.931          42.000  
G16  23477331.614   123374199.020        1171.543          42.000                                                                  
G20  23344448.221   122675893.619        3007.443          42.000                                                                  
G26  23851359.444   125339725.974       -1344.073          44.000    23851355.427    97667250.556       -1047.156          29.000  
G29  25381565.439   133381015.197         888.162          40.000    25381557.811   103933212.356         691.695          36.000  
G30  24728114.604   129947107.658        3391.076          42.000    24728109.259   101257347.127        2642.670          29.000  
G03  24104993.887   126672590.109       -3907.385          37.000    24104988.714    98705899.220       -3044.512          37.000  
> 2024 03 07 00 53 16.0000000  0 11                     
G04  21556484.339   113280081.103       -2753.259          45.000    21556476.516    88270167.149       -2145.542          42.000  
G06  21415481.829   112539107.511       -1991.840          46.000    21415476.692    87692795.948       -1552.207          43.000  
G07  22288813.123   117128492.579        2391.999          46.000    22288804.582    91268927.648        1863.791          39.000  
G09  19997619.279   105088190.168        -295.894          49.000    19997612.631    81886881.171        -230.670          44.000  
G11  22048473.104   115865500.336         604.340          44.000    22048464.961    90284776.767         471.257          42.000  
G16  23477108.696   123373027.929        1170.382          42.000                                                                  
G20  23343876.014   122672886.520        3006.723          42.000                                                                  
G26  23851615.254   125341070.520       -1345.148          44.000    23851608.942    97668298.210       -1047.791          29.000  
G29  25381396.469   133380127.577         886.734          40.000    25381388.962   103932520.670         691.256          36.000  
G30  24727469.466   129943717.053        3390.589          42.000    24727464.193   101254705.167        2641.571          29.000  
G03  24105737.609   126676497.827       -3908.094          37.000    24105731.988    98708944.206       -3045.362          37.000  
> 2024 03 07 00 53 17.0000000  0 11                     
G04  21557008.368   113282834.690       -2753.730          45.000    21557000.459    88272312.805       -2146.125          42.000  
G06  21415861.002   112541099.676       -1992.535          46.000    21415855.753    87694348.266       -1552.391          43.000  
G07  22288358.015   117126100.923        2391.261          46.000    22288349.426    91267064.000        1863.598          39.000  
G09  19997675.722   105088486.463        -296.683          49.000    19997669.026    81887112.046        -231.198          44.000  
G11  22048358.054   115864896.183         603.815          44.000    22048349.957    90284306.008         470.328          42.000  
G16  23476886.104   123371857.846        1169.523          42.000                                                                  
G20  23343303.770   122669880.000        3006.329          42.000                                                                  
G26  23851871.299   125342416.101       -1346.075          44.000    23851865.413    97669346.777       -1049.176          29.000  
G29  25381227.809   133379240.918         886.436          40.000    25381220.318   103931829.820         690.339          36.000  
G30  24726824.355   129940326.919        3390.196          42.000    24726819.199   101252063.526        2641.268          29.000  
G03  24106481.305   126680406.057       -3908.300          37.000    24106475.518    98711989.600       -3045.504          37.000  
> 2024 03 07 00 53 18.0000000  0 11                     
G04  21557532.428   113285588.718       -2754.291          45.000    21557524.565    88274458.797       -2146.425          42.000  
G06  21416240.161   112543092.606       -1993.311          46.000    21416234.982    87695901.218       -1553.531          43.000  
G07  22287903.002   117123709.749        2390.793          46.000    22287894.483    91265200.764        1862.820          40.000  
G09  19997732.253   105088783.393        -297.353          49.000    19997725.531    81887343.428        -231.853          44.000  
G11  22048243.231   115864292.869         602.918          44.000    22048235.148    90283835.910         469.365          42.000  
G16  23476663.676   123370688.559        1168.581          42.000                                                                  
G20  23342731.705   122666873.823        3006.035          42.000                                                                  
G26  23852127.489   125343762.474       -1346.661          44.000    23852120.960    97670395.885       -1049.451          29.000  
G29  25381059.259   133378355.046         885.452          40.000    25381051.650   103931139.546         689.667          36.000  
G30  24726179.377   129936937.035        3389.636          42.000    24726174.172   101249422.006        2641.276          29.000  
G03  24107225.049   126684314.609       -3908.792          37.000    24107219.406    98715035.210       -3045.616          37.000  
> 2024 03 07 00 53 19.0000000  0 11                     
G04  21558056.556   113288343.092       -2754.497          45.000    21558048.813    88276605.050       -2146.321          42.000  
G06  21416619.634   112545086.234       -1994.091          46.000    21416614.344    87697454.678       -1553.657          43.000  
G07  22287448.073   117121318.993        2390.598          46.000    22287439.472    91263337.843        1862.644          39.000  
G09  19997788.941   105089080.857        -297.777          49.000    19997782.083    81887575.221        -232.179          44.000  
G11  22048128.585   115863690.284         602.314          44.000    22048120.457    90283366.361         469.021          42.000  
G16  23476441.208   123369519.947        1168.156          42.000                                                                  
G20  23342159.686   122663867.901        3005.649          42.000                                                                  
G26  23852383.859   125345109.557       -1347.540          44.000    23852377.126    97671445.582       -1049.915          29.000  
G29  25380890.887   133377469.823         885.042          40.000    25380883.293   103930449.744         689.378          36.000  
G30  24725534.336   129933547.258        3389.627          42.000    24725529.289   101246780.672        2640.461          29.000  
G03  24107968.757   126688223.369       -3909.090          37.000    24107963.269    98718080.997       -3045.869          37.000  
> 2024 03 07 00 53 20.0000000  0 11                     
G04  21558580.750   113291097.920       -2755.121          45.000    21558573.066    88278751.675       -2146.876          42.000  
G06  21416999.236   112547080.629       -1994.844          46.000    21416993.954    87699008.751       -1554.384          43.000  
G07  22286993.189   117118928.761        2389.877          46.000    22286984.640    91261475.330        1862.208          40.000  
G09  19997845.684   105089378.965        -298.396          49.000    19997838.807    81887807.517        -232.663          44.000  
G11  22048013.950   115863088.534         601.497          44.000    22048005.968    90282897.454         468.642          42.000  
G16  23476218.981   123368352.132        1167.344          42.000                                                                  
G20  23341587.755   122660862.309        3005.687          42.000                                                                  
G26  23852640.387   125346457.451       -1348.383          44.000    23852633.439    97672495.859       -1050.348          29.000  
G29  25380722.534   133376585.352         884.239          40.000    25380715.087   103929760.546         688.882          36.000  
G30  24724889.346   129930157.706        3389.514          42.000    24724884.343   101244139.418        2641.232          29.000  
G03  24108712.480   126692132.411       -3909.004          37.000    24108707.245    98721127.003       -3045.938          37.000  
> 2024 03 07 00 53 21.0000000  0 11                     
G04  21559105.080   113293853.202       -2755.515          45.000    21559097.355    88280898.648       -2147.137          42.000  
G06  21417378.838   112549075.822       -1995.726          46.000    21417373.686    87700563.451       -1555.059          43.000  
G07  22286538.404   117116539.045        2389.474          46.000    22286529.927    91259613.212        1861.909          40.000  
G09  19997902.520   105089677.739        -299.253          49.000    19997895.610    81888040.314        -233.081          44.000  
G11  22047899.498   115862487.654         600.322          44.000    22047891.671    90282429.229         467.959          42.000  
G16  23475996.870   123367185.134        1166.640          42.000                                                                  
G20  23341015.892   122657857.106        3004.929          43.000                                                                  
G26  23852897.015   125347806.146       -1349.115          44.000    23852890.159    97673546.793       -1051.056          28.000  
G29  25380554.412   133375701.689         883.171          40.000    25380546.974   103929071.972         688.264          36.000  
G30  24724244.347   129926768.431        3388.768          42.000    24724239.383   101241498.430        2640.633          29.000  
G03  24109456.417   126696041.806       -3909.656          37.000    24109451.279    98724173.267       -3046.353          37.000  
> 2024 03 07 00 53 22.0000000  0 11                     
G04  21559629.444   113296609.070       -2756.254          45.000    21559621.836    88283046.074       -2147.815          42.000  
G06  21417758.688   112551071.914       -1996.688          46.000    21417753.563    87702118.855       -1556.034          43.000  
G07  22286083.793   117114149.981        2388.579          46.000    22286075.325    91257751.611        1861.229          39.000  
G09  19997959.541   105089977.265        -300.083          49.000    19997952.563    81888273.718        -233.851          44.000  
G11  22047785.452   115861887.724         599.156          44.000    22047777.528    90281961.755         467.049          42.000  
G16  23475774.958   123366019.060        1165.211          42.000                                                                  
G20  23340444.183   122654852.368        3004.206          42.000                                                                  
G26  23853153.798   125349155.783       -1350.189          44.000    23853146.743    97674598.536       -1052.460          29.000  
G29  25380386.261   133374818.888         882.117          40.000    25380379.056   103928384.093         687.232          36.000  
G30  24723599.500   129923379.505        3388.139          42.000    24723594.597   101238857.711        2640.323          28.000  
G03  24110200.421   126699951.604       -3910.097          37.000    24110195.419    98727219.880       -3046.866          37.000  
> 2024 03 07 00 53 23.0000000  0 11                     
G04  21560153.874   113299365.384       -2756.352          45.000    21560146.339    88285193.862       -2148.036          42.000  
G06  21418138.705   112553068.798       -1997.248          46.000    21418133.637    87703674.863       -1556.343          43.000  
G07  22285629.263   117111761.444        2388.267          46.000    22285620.826    91255890.416        1860.710          39.000  
G09  19998016.593   105090277.444        -300.399          49.000    19998009.674    81888507.629        -234.227          44.000  
G11  22047671.406   115861288.636         598.708          44.000    22047663.564    90281494.932         466.629          42.000  
G16  23475553.164   123364853.777        1164.935          42.000                                                                  
G20  23339872.556   122651847.983        3003.971          42.000                                                                  
G26  23853410.843   125350506.226       -1350.720          44.000    23853403.647    97675650.802       -1052.557          29.000  
G29  25380218.430   133373936.861         881.893          40.000    25380211.275   103927696.808         687.085          37.000  
G30  24722954.662   129919990.805        3388.639          42.000    24722949.856   101236217.214        2639.769          28.000  
G03  24110944.447   126703861.716       -3910.197          37.000    24110939.647    98730266.717       -3046.968          37.000  
> 2024 03 07 00 53 24.0000000  0 11                     
G04  21560678.414   113302122.111       -2757.205          45.000    21560670.970    88287341.942       -2148.287          42.000  
G06  21418518.832   112555066.420       -1998.313          46.000    21418513.654    87705231.445       -1557.054          43.000  
G07  22285174.789   117109373.360        2387.558          46.000    22285166.344    91254029.561        1860.320          40.000  
G09  19998073.801   105090578.212        -301.189          49.000    19998067.051    81888741.990        -234.705          44.000  
G11  22047557.609   115860690.326         597.783          44.000    22047549.759    90281028.724         465.777          42.000  
G16  23475331.533   123363689.238        1163.914          42.000                                                                  
G20  23339300.851   122648843.887        3003.645          42.000                                                                  
G26  23853668.004   125351857.452       -1352.099          44.000    23853660.784    97676703.700       -1053.583          29.000  
G29  25380050.708   133373055.551         880.723          40.000    25380043.648   103927010.078         685.930          37.000  
G30  24722309.763   129916602.301        3388.213          42.000    24722305.074   101233576.800        2640.197          29.000  
G03  24111688.569   126707772.101       -3910.625          38.000    24111683.866    98733313.764       -3047.376          37.000  
> 2024 03 07 00 53 25.0000000  0 11                     
G04  21561203.080   113304879.265       -2757.328          45.000    21561195.622    88289490.380       -2148.645          42.000  
G06  21418899.128   112557064.818       -1998.981          46.000    21418893.987    87706788.636       -1557.593          43.000  
G07  22284720.518   117106985.792        2387.401          46.000    22284712.020    91252169.114        1860.234          40.000  
G09  19998131.138   105090879.630        -301.750          49.000    19998124.503    81888976.848        -234.990          44.000  
G11  22047443.944   115860092.856         597.126          44.000    22047436.096    90280563.155         465.321          42.000  
G16  23475110.133   123362525.484        1163.278          42.000                                                                  
G20  23338729.362   122645840.138        3003.676          42.000                                                                  
G26  23853925.305   125353209.454       -1352.417          44.000    23853918.103    97677757.203       -1053.937          29.000  
G29  25379883.080   133372174.996         880.122          40.000    25379876.063   103926323.908         686.056          37.000  
G30  24721664.942   129913214.043        3387.981          42.000    24721660.180   101230936.574        2640.099          29.000  
G03  24112432.657   126711682.786       -3910.973          37.000    24112428.136    98736361.041       -3047.436          37.000  
> 2024 03 07 00 53 26.0000000  0 11                     
G04  21561727.938   113307636.821       -2757.654          45.000    21561720.312    88291639.134       -2148.849          42.000  
G06  21419279.553   112559063.930       -1999.527          46.000    21419274.525    87708346.371       -1557.802          42.000  
G07  22284266.281   117104598.686        2386.967          46.000    22284257.767    91250309.028        1860.136          40.000  
G09  19998188.615   105091181.616        -302.189          49.000    19998181.992    81889212.162        -235.379          44.000  
G11  22047330.341   115859496.160         596.341          44.000    22047322.524    90280098.205         464.860          42.000  
G16  23474888.953   123361362.489        1162.627          42.000                                                                  
G20  23338157.761   122642836.686        3003.319          42.000                                                                  
G26  23854182.769   125354562.199       -1353.156          44.000    23854175.680    97678811.260       -1055.066          30.000  
G29  25379715.662   133371295.137         879.658          39.000    25379708.682   103925638.306         685.351          37.000  
G30  24721020.266   129909825.946        3388.061          42.000    24721015.578   101228296.521        2639.839          29.000  
G03  24113176.959   126715593.701       -3910.904          38.000    24113172.474    98739408.488       -3046.916          37.000  
> 2024 03 07 00 53 27.0000000  0 11                     
G04  21562252.711   113310394.714       -2757.889          45.000    21562245.110    88293788.132       -2148.931          42.000  
G06  21419660.138   112561063.703       -1999.751          46.000    21419655.090    87709904.644       -1558.372          43.000  
G07  22283812.070   117102211.985        2386.556          46.000    22283803.602    91248449.267        1859.812          40.000  
G09  19998246.285   105091484.140        -302.624          49.000    19998239.596    81889447.903        -235.866          44.000  
G11  22047216.890   115858900.184         595.950          44.000    22047209.086    90279633.800         464.357          42.000  
G16  23474667.809   123360200.155        1162.084          42.000                                                                  
G20  23337586.296   122639833.486        3002.875          42.000                                                                  
G26  23854440.417   125355915.641       -1353.674          44.000    23854433.412    97679865.919       -1055.243          31.000  
G29  25379548.383   133370415.943         879.092          39.000    25379541.423   103924953.200         685.181          37.000  
G30  24720375.483   129906437.976        3388.139          42.000    24720370.798   101225656.561        2639.662          29.000  
G03  24113921.332   126719504.802       -3910.998          38.000    24113916.746    98742456.115       -3047.298          37.000  
> 2024 03 07 00 53 28.0000000  0 11                     
G04  21562777.519   113313153.157       -2758.726          45.000    21562770.014    88295937.578       -2149.855          42.000  
G06  21420040.843   112563064.364       -2000.826          46.000    21420035.724    87711463.613       -1559.524          42.000  
G07  22283358.026   117099825.893        2385.676          46.000    22283349.576    91246589.961        1859.300          39.000  
G09  19998303.933   105091787.397        -303.424          49.000    19998297.249    81889684.205        -236.461          44.000  
G11  22047103.767   115858305.172         594.520          44.000    22047095.892    90279170.159         463.155          42.000  
G16  23474446.826   123359038.732        1160.961          42.000                                                                  
G20  23337014.881   122636830.726        3002.315          42.000                                                                  
G26  23854698.159   125357270.003       -1354.907          44.000    23854691.249    97680921.292       -1055.939          32.000  
G29  25379381.127   133369537.608         877.958          39.000    25379374.429   103924268.822         683.754          37.000  
G30  24719730.862   129903050.340        3387.296          42.000    24719726.088   101223016.855        2639.240          28.000  
G03  24114665.687   126723416.351       -3911.962          38.000    24114661.137    98745504.064       -3047.961          37.000  
> 2024 03 07 00 53 29.0000000  0 11                     
G04  21563302.524   113315912.070       -2759.111          45.000    21563295.002    88298087.383       -2150.181          42.000  
G06  21420421.744   112565065.832       -2001.882          46.000    21420416.474    87713023.187       -1559.899          42.000  
G07  22282904.013   117097440.330        2385.335          46.000    22282895.561    91244731.104        1858.769          40.000  
G09  19998361.733   105092091.336        -304.193          49.000    19998355.062    81889921.040        -237.024          44.000  
G11  22046990.629   115857710.978         593.794          44.000    22046982.847    90278707.157         462.706          42.000  
G16  23474225.967   123357878.107        1160.223          42.000                                                                  
G20  23336443.583   122633828.312        3002.370          42.000                                                                  
G26  23854955.951   125358625.168       -1355.493          44.000    23854949.452    97681977.238       -1055.743          30.000  
G29  25379214.160   133368660.049         877.427          39.000    25379207.417   103923584.981         683.696          37.000  
G30  24719086.243   129899662.952        3387.269          42.000    24719081.577   101220377.282        2639.583          28.000  
G03  24115410.163   126727328.154       -3911.843          38.000    24115405.537    98748552.256       -3048.217          37.000  
> 2024 03 07 00 53 30.0000000  0 11                     
G04  21563827.582   113318671.418       -2759.640          45.000    21563820.113    88300237.500       -2150.177          42.000  
G06  21420802.826   112567068.066       -2002.599          46.000    21420797.473    87714583.360       -1560.258          42.000  
G07  22282450.152   117095055.279        2384.779          46.000    22282441.556    91242872.608        1858.510          40.000  
G09  19998419.614   105092395.886        -304.773          49.000    19998412.950    81890158.358        -237.551          44.000  
G11  22046877.584   115857117.634         592.852          44.000    22046869.813    90278244.796         462.323          42.000  
G16  23474005.227   123356718.278        1159.299          42.000                                                                  
G20  23335872.236   122630826.254        3002.217          42.000                                                                  
G26  23855214.040   125359981.148       -1356.299          44.000    23855207.576    97683033.830       -1057.373          30.000  
G29  25379047.353   133367783.274         876.398          39.000    25379040.557   103922901.780         682.706          37.000  
G30  24718441.730   129896275.793        3386.989          42.000    24718437.176   101217737.918        2639.546          28.000  
G03  24116154.593   126731240.298       -3912.351          38.000    24116150.005    98751600.661       -3048.241          37.000  
> 2024 03 07 00 53 31.0000000  0 11                     
G04  21564352.682   113321431.219       -2760.011          45.000    21564345.318    88302388.015       -2150.828          42.000  
G06  21421184.025   112569071.093       -2003.447          46.000    21421178.655    87716144.161       -1561.050          42.000  
G07  22281996.264   117092670.754        2384.241          46.000    22281987.827    91241014.558        1857.719          40.000  
G09  19998477.856   105092701.102        -305.702          49.000    19998470.958    81890396.181        -237.986          44.000  
G11  22046764.903   115856525.132         591.994          44.000    22046757.065    90277783.138         461.165          42.000  
G16  23473784.638   123355559.251        1158.561          43.000                                                                  
G20  23335301.059   122627824.584        3001.356          42.000                                                                  
G26  23855472.199   125361337.939       -1357.355          44.000    23855465.790    97684091.055       -1057.336          30.000  
G29  25378880.590   133366907.263         875.292          39.000    25378873.917   103922219.168         682.168          37.000  
G30  24717797.259   129892888.897        3386.846          42.000    24717792.782   101215098.816        2638.914          28.000  
G03  24116899.150   126735152.757       -3912.749          38.000    24116894.374    98754649.354       -3049.230          37.000  
> 2024 03 07 00 53 32.0000000  0 11                     
G04  21564877.876   113324191.525       -2760.670          45.000    21564870.576    88304538.897       -2151.158          42.000  
G06  21421565.358   112571074.945       -2004.442          46.000    21421560.022    87717705.605       -1561.641          42.000  
G07  22281542.568   117090286.796        2383.513          46.000    22281534.140    91239156.916        1857.331          40.000  
G09  19998536.000   105093006.996        -306.483          49.000    19998529.193    81890634.541        -238.689          44.000  
G11  22046652.369   115855933.523         591.005          44.000    22046644.404    90277322.124         460.566          42.000  
G16  23473564.250   123354401.071        1157.534          43.000                                                                  
G20  23334730.042   122624823.290        3001.133          42.000                                                                  
G26  23855730.458   125362695.572       -1358.069          44.000    23855724.058    97685148.965       -1058.282          30.000  
G29  25378714.107   133366032.042         874.791          39.000    25378707.353   103921537.161         681.924          37.000  
G30  24717152.816   129889502.272        3386.583          42.000    24717148.322   101212459.853        2639.302          28.000  
G03  24117643.741   126739065.590       -3913.535          38.000    24117638.987    98757698.298       -3049.365          37.000  
> 2024 03 07 00 53 33.0000000  0 11                     
G04  21565403.218   113326952.300       -2761.438          45.000    21565395.894    88306690.152       -2151.736          42.000  
G06  21421946.817   112573079.602       -2005.596          46.000    21421941.464    87719267.676       -1562.715          42.000  
G07  22281089.026   117087903.375        2382.738          46.000    22281080.569    91237299.706        1856.544          40.000  
G09  19998594.398   105093313.547        -307.231          49.000    19998587.629    81890873.407        -239.188          44.000  
G11  22046539.866   115855342.754         589.984          44.000    22046531.947    90276861.793         459.778          42.000  
G16  23473344.029   123353243.705        1156.525          43.000                                                                  
G20  23334158.949   122621822.380        3000.557          42.000                                                                  
G26  23855988.952   125364054.030       -1358.966          45.000    23855982.503    97686207.484       -1058.881          29.000  
G29  25378547.737   133365157.599         873.528          39.000    25378540.938   103920855.806         680.887          37.000  
G30  24716508.407   129886115.907        3386.034          42.000    24716504.039   101209821.102        2639.241          28.000  
G03  24118388.368   126742978.706       -3913.580          38.000    24118383.542    98760747.479       -3049.639          37.000  
> 2024 03 07 00 53 34.0000000  0 11                     
G04  21565928.591   113329713.519       -2761.174          45.000    21565921.381    88308841.743       -2151.608          42.000  
G06  21422328.417   112575085.038       -2005.768          46.000    21422323.133    87720830.339       -1562.678          42.000  
G07  22280635.595   117085520.470        2382.764          46.000    22280627.035    91235442.890        1857.029          39.000  
G09  19998652.829   105093620.748        -307.328          49.000    19998646.180    81891112.790        -239.531          44.000  
G11  22046427.610   115854752.834         589.736          44.000    22046419.632    90276402.117         459.527          42.000  
G16  23473123.945   123352087.134        1156.336          43.000                                                                  
G20  23333587.953   122618821.820        3000.639          42.000                                                                  
G26  23856247.532   125365413.321       -1359.619          44.000    23856241.268    97687266.673       -1059.283          29.000  
G29  25378381.520   133364283.929         873.682          39.000    25378374.657   103920175.043         680.495          36.000  
G30  24715864.020   129882729.772        3386.142          42.000    24715859.918   101207182.642        2638.346          27.000  
G03  24119133.065   126746892.173       -3913.836          37.000    24119128.160    98763796.915       -3049.337          36.000  
> 2024 03 07 00 53 35.0000000  0 11                     
G04  21566454.146   113332475.064       -2761.686          45.000    21566446.984    88310993.602       -2151.990          42.000  
G06  21422710.209   112577091.115       -2006.418          46.000    21422704.814    87722393.535       -1563.662          42.000  
G07  22280182.277   117083137.952        2382.243          46.000    22280173.716    91233586.398        1856.108          40.000  
G09  19998711.440   105093928.469        -308.032          49.000    19998704.743    81891352.564        -239.955          44.000  
G11  22046315.551   115854163.628         588.751          44.000    22046307.540    90275942.988         458.821          41.000  
G16  23472903.945   123350931.239        1155.443          43.000                                                                  
G20  23333017.050   122615821.495        3000.006          42.000                                                                  
G26  23856506.302   125366773.269       -1360.199          44.000    23856500.005    97688326.394       -1060.346          29.000  
G29  25378215.308   133363410.896         872.776          39.000    25378208.514   103919494.758         679.768          36.000  
G30  24715219.705   129879343.751        3385.985          42.000    24715215.611   101204544.141        2638.502          27.000  
G03  24119877.766   126750805.783       -3913.952          37.000    24119872.944    98766846.481       -3049.225          36.000  
> 2024 03 07 00 53 36.0000000  0 11                     
G04  21566979.749   113335237.174       -2762.246          45.000    21566972.532    88313145.890       -2152.263          41.000  
G06  21423092.057   112579098.115       -2007.543          46.000    21423086.776    87723957.420       -1564.153          41.000  
G07  22279728.978   117080756.063        2381.723          46.000    22279720.486    91231730.362        1855.899          39.000  
G09  19998770.075   105094236.937        -308.837          49.000    19998763.470    81891592.930        -240.604          43.000  
G11  22046203.550   115853575.364         587.960          44.000    22046195.563    90275484.610         458.033          41.000  
G16  23472684.152   123349776.242        1154.755          43.000                                                                  
G20  23332446.278   122612821.594        2999.808          42.000                                                                  
G26  23856765.270   125368134.138       -1361.261          44.000    23856759.005    97689386.800       -1060.712          28.000  
G29  25378049.370   133362538.737         871.896          39.000    25378042.577   103918815.157         678.983          35.000  
G30  24714575.460   129875958.099        3385.369          42.000    24714571.200   101201905.942        2638.621          27.000  
G03  24120622.632   126754719.811       -3913.727          37.000    24120617.830    98769896.413       -3050.151          36.000  
> 2024 03 07 00 53 37.0000000  0 11                     
G04  21567505.364   113337999.564       -2762.578          45.000    21567498.237    88315298.426       -2153.026          41.000  
G06  21423474.080   112581105.704       -2008.114          46.000    21423468.863    87725521.779       -1564.591          41.000  
G07  22279275.640   117078374.533        2381.175          46.000    22279267.333    91229874.621        1855.539          39.000  
G09  19998828.905   105094545.886        -309.370          49.000    19998822.161    81891833.679        -241.207          43.000  
G11  22046091.736   115852987.777         587.203          44.000    22046083.792    90275026.741         457.604          41.000  
G16  23472464.576   123348621.892        1154.011          43.000                                                                  
G20  23331875.496   122609821.918        2999.427          42.000                                                                  
G26  23857024.217   125369495.642       -1361.957          44.000    23857017.942    97690447.759       -1061.505          28.000  
G29  25377883.692   133361667.206         870.863          39.000    25377876.682   103918136.024         678.689          35.000  
G30  24713931.195   129872572.531        3385.156          42.000    24713926.860   101199267.827        2637.926          26.000  
G03  24121367.459   126758634.031       -3914.680          37.000    24121362.691    98772946.436       -3050.772          36.000  
> 2024 03 07 00 53 38.0000000  0 11                     
G04  21568031.101   113340762.447       -2763.097          45.000    21568023.949    88317451.291       -2152.787          42.000  
G06  21423856.347   112583114.125       -2008.895          46.000    21423851.115    87727086.776       -1565.433          42.000  
G07  22278822.552   117075993.556        2380.507          46.000    22278814.151    91228019.330        1854.885          40.000  
G09  19998887.892   105094855.512        -309.879          49.000    19998881.037    81892074.943        -241.406          44.000  
G11  22045980.034   115852401.073         586.293          44.000    22045972.206    90274569.571         456.656          41.000  
G16  23472245.048   123347468.371        1153.198          42.000                                                                  
G20  23331304.801   122606822.619        2999.223          42.000                                                                  
G26  23857283.544   125370858.005       -1362.866          44.000    23857277.002    97691509.328       -1062.311          28.000  
G29  25377718.018   133360796.424         870.269          39.000    25377711.049   103917457.494         677.939          36.000  
G30  24713287.092   129869187.194        3385.188          42.000    24713282.614   101196629.931        2638.134          27.000  
G03  24122112.385   126762548.557       -3914.791          37.000    24122107.587    98775996.708       -3050.646          37.000  
> 2024 03 07 00 53 39.0000000  0 11                     
G04  21568556.994   113343525.863       -2763.735          45.000    21568549.821    88319604.609       -2153.401          42.000  
G06  21424238.777   112585123.395       -2009.547          46.000    21424233.491    87728652.447       -1565.988          42.000  
G07  22278369.596   117073613.149        2380.196          46.000    22278361.226    91226164.461        1855.046          40.000  
G09  19998946.839   105095165.856        -310.572          49.000    19998940.121    81892316.771        -242.139          44.000  
G11  22045868.535   115851815.277         585.470          44.000    22045860.700    90274113.105         456.260          42.000  
G16  23472025.650   123346315.717        1152.293          43.000                                                                  
G20  23330734.128   122603823.753        2998.649          42.000                                                                  
G26  23857542.985   125372221.235       -1363.708          44.000    23857536.277    97692571.572       -1062.524          28.000  
G29  25377552.467   133359926.534         869.570          39.000    25377545.501   103916779.670         677.597          36.000  
G30  24712643.017   129865802.186        3385.097          42.000    24712638.536   101193992.306        2637.373          28.000  
G03  24122857.286   126766463.434       -3914.801          37.000    24122852.594    98779047.273       -3050.875          37.000  
> 2024 03 07 00 53 40.0000000  0 11                     
G04  21569083.029   113346289.738       -2764.323          45.000    21569075.793    88321758.291       -2154.243          43.000  
G06  21424621.336   112587133.474       -2010.789          46.000    21424615.940    87730218.743       -1566.660          43.000  
G07  22277916.778   117071233.312        2379.320          46.000    22277908.416    91224310.050        1853.884          40.000  
G09  19999006.105   105095476.875        -311.504          49.000    19998999.352    81892559.125        -242.881          45.000  
G11  22045757.316   115851230.342         584.401          44.000    22045749.430    90273657.318         455.279          42.000  
G16  23471806.430   123345163.895        1151.082          43.000                                                                  
G20  23330163.671   122600825.263        2998.104          42.000                                                                  
G26  23857802.609   125373585.316       -1364.984          44.000    23857795.818    97693634.517       -1063.654          29.000  
G29  25377387.007   133359057.429         868.436          39.000    25377380.095   103916102.460         676.427          36.000  
G30  24711998.977   129862417.458        3384.262          42.000    24711994.627   101191354.864        2637.343          28.000  
G03  24123602.346   126770378.703       -3915.828          38.000    24123597.712    98782098.102       -3050.864          37.000  
> 2024 03 07 00 53 41.0000000  0 11                     
G04  21569609.045   113349054.101       -2764.283          45.000    21569601.847    88323912.339       -2154.247          43.000  
G06  21425003.879   112589144.380       -2011.338          46.000    21424998.560    87731785.678       -1567.219          43.000  
G07  22277464.059   117068854.004        2379.239          46.000    22277455.698    91222456.044        1853.938          40.000  
G09  19999065.441   105095788.571        -311.908          49.000    19999058.650    81892802.003        -243.130          45.000  
G11  22045646.186   115850646.287         583.884          44.000    22045638.303    90273202.203         454.728          43.000  
G16  23471587.319   123344012.889        1150.700          43.000                                                                  
G20  23329593.151   122597827.140        2998.389          42.000                                                                  
G26  23858062.371   125374950.216       -1365.326          44.000    23858055.474    97694698.052       -1063.837          29.000  
G29  25377221.723   133358189.106         868.076          39.000    25377214.741   103915425.848         676.463          37.000  
G30  24711354.973   129859032.986        3384.519          42.000    24711350.632   101188717.588        2637.313          28.000  
G03  24124347.385   126774294.282       -3915.649          38.000    24124342.822    98785149.228       -3051.109          38.000  
> 2024 03 07 00 53 42.0000000  0 11                     
G04  21570135.144   113351818.858       -2765.344          45.000    21570127.978    88326066.673       -2154.508          43.000  
G06  21425386.556   112591155.967       -2012.203          45.000    21425381.218    87733353.157       -1568.040          43.000  
G07  22277011.415   117066475.168        2378.214          46.000    22277003.079    91220602.413        1852.827          41.000  
G09  19999124.814   105096100.843        -312.809          49.000    19999118.090    81893045.328        -243.784          45.000  
G11  22045535.227   115850062.995         582.591          44.000    22045527.264    90272747.692         453.785          43.000  
G16  23471368.524   123342862.628        1149.539          43.000                                                                  
G20  23329022.710   122594829.332        2997.466          42.000                                                                  
G26  23858322.124   125376315.869       -1366.479          44.000    23858315.172    97695762.188       -1064.691          30.000  
G29  25377056.593   133357321.473         867.197          39.000    25377049.593   103914749.782         675.503          37.000  
G30  24710710.928   129855648.692        3383.860          42.000    24710706.701   101186080.454        2637.248          28.000  
G03  24125092.494   126778210.085       -3916.463          37.000    24125088.004    98788200.495       -3051.704          38.000  
> 2024 03 07 00 53 43.0000000  0 11                     
G04  21570661.239   113354584.017       -2765.366          45.000    21570654.210    88328221.359       -2154.912          43.000  
G06  21425769.462   112593168.334       -2012.750          46.000    21425764.201    87734921.235       -1568.389          43.000  
G07  22276558.863   117064096.804        2378.128          46.000    22276550.536    91218749.119        1853.249          41.000  
G09  19999184.425   105096413.723        -313.220          49.000    19999177.560    81893289.139        -244.183          45.000  
G11  22045424.433   115849480.510         582.100          44.000    22045416.413    90272293.806         453.472          43.000  
G16  23471149.754   123341713.117        1149.174          42.000                                                                  
G20  23328452.333   122591831.838        2997.361          42.000                                                                  
G26  23858582.224   125377682.292       -1366.662          44.000    23858575.115    97696826.946       -1065.485          31.000  
G29  25376891.670   133356454.599         866.659          39.000    25376884.572   103914074.292         675.440          37.000  
G30  24710066.898   129852264.603        3384.020          42.000    24710062.764   101183443.539        2636.832          29.000  
G03  24125837.767   126782126.163       -3915.893          37.000    24125833.295    98791252.012       -3051.995          38.000  
> 2024 03 07 00 53 44.0000000  0 11                     
G04  21571187.614   113357349.771       -2765.875          45.000    21571180.479    88330376.470       -2155.122          43.000  
G06  21426152.450   112595181.605       -2013.591          46.000    21426147.390    87736490.019       -1569.034          43.000  
G07  22276106.339   117061719.079        2377.650          46.000    22276098.107    91216896.359        1852.747          41.000  
G09  19999244.163   105096727.363        -313.808          49.000    19999237.159    81893533.528        -244.508          45.000  
G11  22045313.745   115848898.994         581.286          44.000    22045305.750    90271840.679         452.862          43.000  
G16  23470931.195   123340564.538        1148.549          42.000                                                                  
G20  23327882.025   122588834.829        2997.072          42.000                                                                  
G26  23858842.385   125379049.648       -1367.505          44.000    23858835.260    97697892.405       -1065.869          31.000  
G29  25376726.803   133355588.617         865.639          39.000    25376719.789   103913399.481         674.930          37.000  
G30  24709423.024   129848880.890        3383.599          42.000    24709419.068   101180806.898        2636.839          30.000  
G03  24126583.093   126786042.719       -3916.665          37.000    24126578.565    98794303.823       -3051.861          39.000  
> 2024 03 07 00 53 45.0000000  0 11                     
G04  21571714.042   113360115.894       -2766.571          45.000    21571706.843    88332531.897       -2155.667          42.000  
G06  21426535.717   112597195.577       -2014.565          46.000    21426530.595    87738059.337       -1569.597          42.000  
G07  22275653.882   117059341.807        2376.811          46.000    22275645.732    91215043.949        1852.192          40.000  
G09  19999303.917   105097041.580        -314.601          49.000    19999297.019    81893778.372        -245.200          44.000  
G11  22045203.199   115848318.233         580.440          44.000    22045195.302    90271388.137         451.954          42.000  
G16  23470712.794   123339416.691        1147.269          43.000                                                                  
G20  23327311.715   122585838.091        2996.170          42.000                                                                  
G26  23859102.741   125380417.739       -1368.762          44.000    23859095.574    97698958.442       -1066.077          31.000  
G29  25376562.201   133354723.313         864.787          40.000    25376555.060   103912725.241         673.897          36.000  
G30  24708779.167   129845497.332        3382.965          42.000    24708775.163   101178170.373        2636.006          28.000  
G03  24127328.522   126789959.472       -3916.940          38.000    24127324.018    98797355.862       -3052.537          37.000  
> 2024 03 07 00 53 46.0000000  0 11                     
G04  21572240.482   113362882.440       -2766.705          45.000    21572233.223    88334687.650       -2156.060          42.000  
G06  21426919.108   112599210.312       -2015.317          45.000    21426913.998    87739629.248       -1570.048          43.000  
G07  22275201.659   117056965.034        2376.522          46.000    22275193.553    91213191.906        1851.811          40.000  
G09  19999363.791   105097356.418        -315.026          49.000    19999356.893    81894023.697        -245.463          44.000  
G11  22045092.829   115847738.304         579.611          45.000    22045085.010    90270936.220         451.471          44.000  
G16  23470494.507   123338269.620        1146.632          43.000                                                                  
G20  23326741.443   122582841.696        2996.169          42.000                                                                  
G26  23859363.267   125381786.605       -1369.226          44.000    23859356.145    97700025.130       -1066.913          31.000  
G29  25376397.608   133353858.753         864.215          40.000    25376390.446   103912051.566         673.279          36.000  
G30  24708135.304   129842113.982        3383.365          42.000    24708131.414   101175533.938        2636.623          28.000  
G03  24128073.989   126793876.481       -3916.914          38.000    24128069.432    98800408.087       -3052.276          38.000  
> 2024 03 07 00 53 47.0000000  0 11                     
G04  21572767.030   113365649.408       -2767.053          45.000    21572759.867    88336843.717       -2156.139          43.000  
G06  21427302.638   112601225.790       -2015.723          46.000    21427297.487    87741199.761       -1570.665          43.000  
G07  22274749.471   117054588.726        2376.094          46.000    22274741.338    91211340.247        1851.328          40.000  
G09  19999423.854   105097671.855        -315.592          49.000    19999416.971    81894269.483        -246.012          44.000  
G11  22044982.668   115847159.174         578.810          45.000    22044974.706    90270484.953         450.995          43.000  
G16  23470276.343   123337123.306        1146.021          43.000                                                                  
G20  23326171.271   122579845.611        2996.284          42.000                                                                  
G26  23859623.989   125383156.229       -1369.904          44.000    23859616.780    97701092.371       -1067.267          31.000  
G29  25376233.199   133352994.906         863.257          40.000    25376226.119   103911378.433         672.869          36.000  
G30  24707491.478   129838730.848        3383.174          42.000    24707487.403   101172897.720        2635.798          28.000  
G03  24128819.414   126797793.814       -3917.598          38.000    24128814.851    98803460.517       -3052.203          38.000  
> 2024 03 07 00 53 48.0000000  0 11                     
G04  21573293.734   113368416.883       -2767.510          45.000    21573286.409    88339000.190       -2156.531          43.000  
G06  21427686.386   112603242.115       -2016.537          46.000    21427681.200    87742770.920       -1571.333          43.000  
G07  22274297.421   117052213.022        2375.508          46.000    22274289.311    91209489.042        1851.206          40.000  
G09  19999484.044   105097988.018        -316.421          49.000    19999477.185    81894515.855        -246.781          44.000  
G11  22044872.625   115846580.954         577.941          46.000    22044864.644    90270034.379         450.293          43.000  
G16  23470058.396   123335977.850        1145.271          43.000                                                                  
G20  23325601.132   122576849.972        2995.621          43.000                                                                  
G26  23859884.828   125384526.762       -1370.874          44.000    23859877.521    97702160.317       -1068.610          30.000  
G29  25376069.034   133352131.911         862.988          39.000    25376061.920   103910705.961         672.465          36.000  
G30  24706847.805   129835347.997        3382.929          42.000    24706843.587   101170261.741        2636.592          28.000  
G03  24129564.758   126801711.502       -3917.573          37.000    24129560.399    98806513.311       -3052.945          38.000  
> 2024 03 07 00 53 49.0000000  0 11                     
G04  21573820.295   113371184.665       -2767.721          45.000    21573813.183    88341156.900       -2156.592          42.000  
G06  21428070.173   112605259.083       -2017.150          47.000    21428064.943    87744342.588       -1571.947          43.000  
G07  22273845.399   117049837.685        2375.274          46.000    22273837.333    91207638.132        1850.848          41.000  
G09  19999544.244   105098304.666        -316.733          49.000    19999537.422    81894762.593        -247.002          44.000  
G11  22044762.838   115846003.413         577.443          46.000    22044754.773    90269584.355         449.976          43.000  
G16  23469840.551   123334833.058        1144.710          42.000                                                                  
G20  23325031.099   122573854.511        2995.683          43.000                                                                  
G26  23860145.723   125385897.926       -1371.246          44.000    23860138.363    97703228.737       -1068.658          31.000  
G29  25375904.945   133351269.533         862.318          40.000    25375897.806   103910033.973         671.999          36.000  
G30  24706204.204   129831965.273        3383.022          41.000    24706199.767   101167625.897        2635.457          29.000  
G03  24130310.349   126805629.372       -3917.541          36.000    24130305.910    98809566.168       -3052.961          38.000  
> 2024 03 07 00 53 50.0000000  0 11                     
G04  21574347.160   113373952.998       -2768.818          45.000    21574339.936    88343314.037       -2157.042          42.000  
G06  21428454.090   112607276.938       -2018.508          46.000    21428448.929    87745914.920       -1572.727          43.000  
G07  22273393.533   117047462.953        2374.202          46.000    22273385.457    91205787.684        1850.510          40.000  
G09  19999604.595   105098622.061        -317.703          49.000    19999597.765    81895009.910        -247.637          44.000  
G11  22044653.127   115845426.822         575.980          45.000    22044645.040    90269135.073         448.643          43.000  
G16  23469622.903   123333689.168        1143.260          43.000                                                                  
G20  23324461.124   122570859.531        2994.770          43.000                                                                  
G26  23860406.861   125387270.014       -1372.400          44.000    23860399.442    97704297.919       -1069.641          31.000  
G29  25375740.848   133350408.023         861.293          39.000    25375733.773   103909362.668         671.354          36.000  
G30  24705560.505   129828582.897        3381.880          41.000    24705555.967   101164990.207        2635.452          29.000  
G03  24131056.063   126809547.627       -3918.473          37.000    24131051.605    98812619.329       -3053.312          38.000  
> 2024 03 07 00 53 51.0000000  0 11                     
G04  21574874.038   113376721.825       -2769.103          45.000    21574866.820    88345471.570       -2157.581          42.000  
G06  21428838.199   112609295.595       -2019.098          46.000    21428833.149    87747487.911       -1573.298          43.000  
G07  22272941.659   117045088.761        2373.804          46.000    22272933.610    91203937.665        1849.997          40.000  
G09  19999665.194   105098940.144        -318.519          49.000    19999658.318    81895257.767        -248.159          44.000  
G11  22044543.640   115844851.109         575.236          44.000    22044535.492    90268686.470         448.230          43.000  
G16  23469405.449   123332546.103        1142.595          42.000                                                                  
G20  23323891.337   122567864.910        2994.347          44.000                                                                  
G26  23860668.163   125388642.949       -1373.267          44.000    23860660.687    97705367.714       -1069.556          31.000  
G29  25375577.134   133349547.304         860.209          39.000    25375569.937   103908692.014         670.289          36.000  
G30  24704916.796   129825200.748        3382.212          41.000    24704912.434   101162354.882        2634.796          29.000  
G03  24131801.679   126813466.212       -3918.655          37.000    24131797.408    98815672.786       -3053.578          38.000  
> 2024 03 07 00 53 52.0000000  0 11                     
G04  21575401.077   113379490.995       -2769.569          45.000    21575393.783    88347629.375       -2157.992          42.000  
G06  21429222.458   112611314.934       -2019.737          46.000    21429217.289    87749061.423       -1573.867          44.000  
G07  22272489.900   117042714.987        2373.411          46.000    22272481.847    91202087.992        1849.173          41.000  
G09  19999725.741   105099258.769        -319.096          49.000    19999718.922    81895506.055        -248.891          44.000  
G11  22044434.230   115844276.144         574.254          45.000    22044426.096    90268238.435         447.566          43.000  
G16  23469188.005   123331403.742        1142.058          43.000                                                                  
G20  23323321.539   122564870.569        2994.156          44.000                                                                  
G26  23860929.450   125390016.583       -1374.274          44.000    23860922.205    97706438.047       -1069.971          32.000  
G29  25375413.452   133348687.273         859.616          38.000    25375406.196   103908021.849         669.830          36.000  
G30  24704273.195   129821818.766        3381.832          41.000    24704269.076   101159719.503        2635.138          28.000  
G03  24132547.543   126817385.022       -3919.119          37.000    24132543.022    98818726.389       -3053.543          38.000  
> 2024 03 07 00 53 53.0000000  0 11                     
G04  21575928.188   113382260.567       -2769.689          45.000    21575920.853    88349787.493       -2158.097          42.000  
G06  21429606.773   112613335.020       -2020.450          46.000    21429601.658    87750635.530       -1574.367          44.000  
G07  22272038.231   117040341.711        2373.118          46.000    22272030.165    91200238.670        1849.286          41.000  
G09  19999786.463   105099578.003        -319.501          49.000    19999779.739    81895754.789        -248.845          44.000  
G11  22044325.028   115843702.007         573.697          45.000    22044316.941    90267791.058         447.089          43.000  
G16  23468970.747   123330262.157        1141.395          43.000                                                                  
G20  23322751.855   122561876.546        2994.002          43.000                                                                  
G26  23861191.117   125391390.999       -1374.634          44.000    23861183.837    97707509.096       -1071.686          32.000  
G29  25375249.931   133347827.972         858.870          38.000    25375242.750   103907352.253         669.502          36.000  
G30  24703629.714   129818437.000        3381.672          41.000    24703625.551   101157084.411        2634.552          28.000  
G03  24133293.316   126821304.106       -3919.232          37.000    24133288.826    98821780.254       -3053.770          38.000  
> 2024 03 07 00 53 54.0000000  0 11                     
G04  21576455.353   113385030.523       -2770.098          45.000    21576447.934    88351945.906       -2158.749          42.000  
G06  21429991.266   112615355.794       -2021.110          46.000    21429986.208    87752210.157       -1575.043          43.000  
G07  22271586.659   117037968.867        2372.349          46.000    22271578.559    91198389.701        1848.900          41.000  
G09  19999847.340   105099897.778        -320.116          49.000    19999840.618    81896003.975        -249.495          44.000  
G11  22044215.927   115843128.569         572.916          43.000    22044207.884    90267344.247         446.380          42.000  
G16  23468753.592   123329121.279        1140.557          42.000                                                                  
G20  23322182.301   122558882.788        2993.542          43.000                                                                  
G26  23861452.809   125392766.120       -1375.629          44.000    23861445.550    97708580.571       -1071.576          32.000  
G29  25375086.573   133346969.358         857.935          38.000    25375079.428   103906683.215         668.801          36.000  
G30  24702986.169   129815055.395        3381.501          41.000    24702981.990   101154449.353        2634.705          28.000  
G03  24134039.177   126825223.418       -3919.744          37.000    24134034.592    98824834.228       -3054.426          37.000  
> 2024 03 07 00 53 55.0000000  0 11                     
G04  21576982.547   113387800.836       -2770.345          45.000    21576975.131    88354104.591       -2158.766          43.000  
G06  21430375.975   112617377.273       -2021.678          46.000    21430370.985    87753785.319       -1575.249          43.000  
G07  22271135.182   117035596.445        2372.396          46.000    22271127.073    91196541.066        1848.781          41.000  
G09  19999908.310   105100218.124        -320.448          49.000    19999901.483    81896253.596        -249.762          44.000  
G11  22044107.001   115842555.919         572.493          45.000    22044098.959    90266897.992         446.209          43.000  
G16  23468536.699   123327981.110        1139.954          43.000                                                                  
G20  23321612.695   122555889.265        2993.632          43.000                                                                  
G26  23861714.669   125394141.966       -1376.013          44.000    23861707.416    97709652.666       -1072.473          32.000  
G29  25374923.328   133346111.423         857.779          38.000    25374916.230   103906014.714         668.330          36.000  
G30  24702342.734   129811673.919        3381.329          41.000    24702338.432   101151814.432        2634.752          27.000  
G03  24134784.916   126829142.908       -3919.566          37.000    24134780.400    98827888.402       -3054.367          37.000  
> 2024 03 07 00 53 56.0000000  0 11                     
G04  21577509.785   113390571.440       -2770.444          45.000    21577502.420    88356263.510       -2159.183          43.000  
G06  21430760.815   112619399.377       -2022.227          46.000    21430755.910    87755360.986       -1575.793          44.000  
G07  22270683.800   117033224.404        2371.917          46.000    22270675.681    91194692.718        1848.441          40.000  
G09  19999969.428   105100538.968        -321.059          49.000    19999962.533    81896503.597        -250.162          44.000  
G11  22043998.116   115841983.915         571.845          46.000    22043990.141    90266452.283         445.701          43.000  
G16  23468319.857   123326841.602        1139.412          43.000                                                                  
G20  23321043.096   122552895.989        2993.348          43.000                                                                  
G26  23861976.530   125395518.457       -1376.508          44.000    23861969.446    97710725.262       -1073.212          33.000  
G29  25374760.195   133345254.104         857.090          38.000    25374753.020   103905346.653         667.831          37.000  
G30  24701699.291   129808292.528        3381.636          42.000    24701694.906   101149179.565        2634.777          28.000  
G03  24135530.672   126833062.559       -3919.348          37.000    24135526.344    98830942.665       -3054.108          37.000  
> 2024 03 07 00 53 57.0000000  0 11                     
G04  21578037.097   113393342.607       -2771.255          45.000    21578029.672    88358422.841       -2159.542          43.000  
G06  21431145.691   112621422.372       -2023.309          46.000    21431140.880    87756937.350       -1576.841          43.000  
G07  22270232.563   117030852.973        2371.184          46.000    22270224.414    91192844.864        1847.349          41.000  
G09  20000030.612   105100860.547        -322.105          49.000    20000023.668    81896754.170        -250.711          44.000  
G11  22043889.391   115841412.901         570.647          44.000    22043881.563    90266007.351         444.427          42.000  
G16  23468103.327   123325702.969        1138.281          42.000                                                                  
G20  23320473.609   122549903.154        2992.493          43.000                                                                  
G26  23862238.602   125396895.878       -1377.917          44.000    23862231.671    97711798.617       -1074.323          32.000  
G29  25374597.201   133344397.628         856.007          39.000    25374590.058   103904679.244         667.295          37.000  
G30  24701055.823   129804911.506        3380.755          42.000    24701051.188   101146544.955        2634.588          28.000  
G03  24136276.747   126836982.661       -3921.257          37.000    24136272.301    98833997.299       -3055.007          38.000  
> 2024 03 07 00 53 58.0000000  0 11                     
G04  21578564.536   113396114.273       -2771.808          45.000    21578557.135    88360582.586       -2160.150          43.000  
G06  21431530.838   112623446.181       -2024.105          46.000    21431525.974    87758514.358       -1577.592          43.000  
G07  22269781.438   117028482.119        2370.598          46.000    22269773.273    91190997.444        1847.033          41.000  
G09  20000091.907   105101182.813        -322.710          49.000    20000085.017    81897005.306        -251.461          44.000  
G11  22043780.887   115840842.767         569.549          44.000    22043773.078    90265563.075         443.894          42.000  
G16  23467886.792   123324565.211        1136.996          43.000                                                                  
G20  23319904.247   122546910.732        2992.118          43.000                                                                  
G26  23862500.871   125398274.141       -1378.625          44.000    23862493.979    97712872.537       -1073.541          31.000  
G29  25374434.405   133343541.995         855.476          39.000    25374427.263   103904012.540         666.481          37.000  
G30  24700412.516   129801530.762        3380.331          41.000    24700407.894   101143910.680        2634.121          28.000  
G03  24137023.011   126840903.058       -3920.443          38.000    24137018.355    98837052.154       -3054.656          38.000  
> 2024 03 07 00 53 59.0000000  0 11                     
G04  21579092.092   113398886.360       -2772.484          45.000    21579084.629    88362742.642       -2160.310          43.000  
G06  21431916.053   112625470.761       -2025.220          46.000    21431911.193    87760091.929       -1577.891          42.000  
G07  22269330.460   117026111.772        2369.871          46.000    22269322.259    91189150.413        1846.733          41.000  
G09  20000153.298   105101505.704        -323.479          49.000    20000146.566    81897256.900        -252.053          44.000  
G11  22043672.619   115840273.429         568.616          44.000    22043664.803    90265119.450         443.240          42.000  
G16  23467670.491   123323428.205        1136.448          43.000                                                                  
G20  23319334.769   122543918.617        2992.012          42.000                                                                  
G26  23862763.255   125399653.176       -1379.517          44.000    23862756.549    97713947.095       -1075.171          32.000  
G29  25374271.740   133342687.085         854.457          40.000    25374264.640   103903346.377         665.722          37.000  
G30  24699769.234   129798150.231        3380.115          41.000    24699764.502   101141276.485        2633.941          28.000  
G03  24137769.115   126844823.777       -3920.679          38.000    24137764.477    98840107.268       -3055.642          38.000  
> 2024 03 07 00 54 00.0000000  0 11                     
G04  21579619.661   113401658.905       -2772.622          45.000    21579612.268    88364903.073       -2160.575          43.000  
G06  21432301.558   112627496.132       -2025.730          46.000    21432296.658    87761670.153       -1578.535          42.000  
G07  22268879.437   117023741.933        2369.840          46.000    22268871.349    91187303.790        1846.792          41.000  
G09  20000214.883   105101829.246        -323.856          49.000    20000208.119    81897509.012        -252.271          44.000  
G11  22043564.442   115839704.938         568.113          44.000    22043556.606    90264676.491         442.543          42.000  
G16  23467454.183   123322292.010        1135.752          43.000                                                                  
G20  23318765.488   122540926.885        2991.819          43.000                                                                  
G26  23863025.881   125401033.049       -1380.273          45.000    23863019.127    97715022.303       -1075.043          32.000  
G29  25374109.141   133341832.944         853.834          40.000    25374102.062   103902680.825         664.982          37.000  
G30  24699126.008   129794769.943        3380.059          42.000    24699121.170   101138642.492        2633.904          28.000  
G03  24138515.184   126848744.806       -3920.766          38.000    24138510.673    98843162.600       -3055.439          38.000  
> 2024 03 07 00 54 01.0000000  0 11                     
G04  21580147.417   113404431.896       -2772.892          45.000    21580139.993    88367063.840       -2160.673          43.000  
G06  21432687.117   112629522.279       -2026.584          47.000    21432682.150    87763248.959       -1579.087          43.000  
G07  22268428.593   117021372.624        2369.272          46.000    22268420.470    91185457.571        1846.305          41.000  
G09  20000276.580   105102153.416        -324.273          49.000    20000269.867    81897761.618        -252.617          44.000  
G11  22043456.470   115839137.312         567.303          45.000    22043448.577    90264234.163         442.100          42.000  
G16  23467238.018   123321156.603        1135.182          43.000                                                                  
G20  23318196.265   122537935.498        2991.666          43.000                                                                  
G26  23863288.584   125402413.693       -1380.756          45.000    23863281.976    97716098.162       -1076.367          32.000  
G29  25373946.765   133340979.533         853.575          40.000    25373939.714   103902015.853         664.565          37.000  
G30  24698482.793   129791389.902        3379.921          42.000    24698477.845   101136008.735        2633.878          28.000  
G03  24139261.457   126852666.127       -3920.760          37.000    24139257.026    98846218.191       -3055.577          38.000  
> 2024 03 07 00 54 02.0000000  0 11                     
G04  21580675.065   113407205.314       -2773.698          45.000    21580667.796    88369224.941       -2161.335          43.000  
G06  21433072.886   112631549.153       -2026.918          46.000    21433067.814    87764828.356       -1579.683          43.000  
G07  22267977.829   117019003.789        2368.555          46.000    22267969.771    91183611.760        1845.289          41.000  
G09  20000338.384   105102478.210        -325.112          49.000    20000331.612    81898014.706        -253.443          44.000  
G11  22043348.666   115838570.482         566.382          45.000    22043340.767    90263792.480         441.220          43.000  
G16  23467022.060   123320021.984        1133.876          43.000                                                                  
G20  23317626.965   122534944.434        2990.937          42.000                                                                  
G26  23863551.524   125403795.133       -1381.567          45.000    23863544.911    97717174.608       -1076.105          32.000  
G29  25373784.529   133340126.910         852.183          40.000    25373777.539   103901351.426         664.157          37.000  
G30  24697839.613   129788010.057        3379.516          41.000    24697834.606   101133375.077        2633.342          28.000  
G03  24140007.608   126856587.755       -3921.794          37.000    24140003.357    98849273.969       -3055.622          38.000  
> 2024 03 07 00 54 03.0000000  0 11                     
G04  21581202.922   113409979.213       -2773.914          45.000    21581195.663    88371386.448       -2161.842          43.000  
G06  21433458.757   112633576.898       -2028.170          46.000    21433453.814    87766408.406       -1580.269          43.000  
G07  22267527.200   117016635.540        2368.168          46.000    22267519.113    91181766.342        1845.377          41.000  
G09  20000400.357   105102803.708        -325.778          49.000    20000393.532    81898268.339        -253.853          44.000  
G11  22043240.954   115838004.541         565.864          44.000    22043233.082    90263351.495         440.358          43.000  
G16  23466806.318   123318888.208        1133.410          43.000                                                                  
G20  23317057.866   122531953.790        2990.158          44.000                                                                  
G26  23863814.573   125405177.457       -1383.099          45.000    23863808.026    97718251.775       -1077.686          32.000  
G29  25373622.440   133339275.096         850.862          38.000    25373615.452   103900687.707         663.743          37.000  
G30  24697196.507   129784630.520        3379.339          42.000    24697191.481   101130741.653        2633.231          28.000  
G03  24140753.930   126860509.686       -3921.111          37.000    24140749.751    98852330.057       -3056.011          38.000  
> 2024 03 07 00 54 04.0000000  0 11                     
G04  21581730.864   113412753.574       -2774.753          45.000    21581723.615    88373548.250       -2161.931          43.000  
G06  21433844.784   112635605.380       -2028.854          46.000    21433839.741    87767989.038       -1580.922          43.000  
G07  22267076.676   117014267.798        2367.351          46.000    22267068.421    91179921.355        1844.858          41.000  
G09  20000462.420   105103129.820        -326.445          49.000    20000455.496    81898522.453        -254.409          44.000  
G11  22043133.388   115837439.428         564.449          44.000    22043125.506    90262911.144         439.880          42.000  
G16  23466590.625   123317755.222        1132.339          43.000                                                                  
G20  23316488.851   122528963.459        2990.326          43.000                                                                  
G26  23864077.719   125406560.519       -1383.392          44.000    23864071.237    97719329.503       -1078.094          32.000  
G29  25373460.436   133338424.097         850.594          34.000    25373453.558   103900024.583         662.940          34.000  
G30  24696553.494   129781251.198        3379.082          42.000    24696548.313   101128108.451        2633.060          28.000  
G03  24141500.343   126864431.970       -3922.646          37.000    24141496.124    98855386.382       -3056.765          38.000  
> 2024 03 07 00 54 05.0000000  0 11                     
G04  21582258.957   113415528.446       -2775.345          45.000    21582251.673    88375710.507       -2162.684          43.000  
G06  21434231.008   112637634.733       -2030.089          46.000    21434225.912    87769570.346       -1581.613          43.000  
G07  22266626.237   117011900.649        2366.805          46.000    22266618.028    91178076.829        1844.093          41.000  
G09  20000524.603   105103456.665        -327.373          49.000    20000517.739    81898777.136        -255.119          44.000  
G11  22043025.962   115836875.232         563.471          44.000    22043018.285    90262471.511         439.186          42.000  
G16  23466375.284   123316623.094        1131.553          43.000                                                                  
G20  23315919.889   122525973.585        2989.630          43.000                                                                  
G26  23864341.069   125407944.500       -1384.460          45.000    23864334.622    97720407.918       -1078.430          31.000  
G29  25373298.531   133337573.798         849.452          41.000    25373291.766   103899362.004         661.749          39.000  
G30  24695910.495   129777872.207        3378.547          42.000    24695905.541   101125475.469        2632.406          28.000  
G03  24142246.734   126868354.624       -3923.077          37.000    24142242.529    98858442.951       -3056.663          38.000  
> 2024 03 07 00 54 06.0000000  0 11                     
G04  21582786.998   113418303.605       -2775.339          45.000    21582779.751    88377872.952       -2162.526          43.000  
G06  21434617.316   112639664.680       -2030.190          46.000    21434612.141    87771152.123       -1581.959          43.000  
G07  22266175.774   117009533.859        2366.486          46.000    22266167.582    91176232.562        1844.176          41.000  
G09  20000586.836   105103783.982        -327.547          49.000    20000580.025    81899032.188        -255.275          44.000  
G11  22042918.651   115836311.699         563.315          44.000    22042910.984    90262032.401         438.772          42.000  
G16  23466159.863   123315491.612        1131.466          43.000                                                                  
G20  23315350.887   122522983.887        2989.740          43.000                                                                  
G26  23864604.512   125409329.097       -1384.833          45.000    23864598.120    97721486.787       -1079.431          32.000  
G29  25373136.838   133336724.148         849.632          39.000    25373130.093   103898699.967         661.181          37.000  
G30  24695267.518   129774493.276        3379.019          42.000    24695262.461   101122842.468        2633.354          28.000  
G03  24142993.109   126872277.375       -3922.818          37.000    24142989.034    98861499.669       -3056.914          38.000  
> 2024 03 07 00 54 07.0000000  0 11                     
G04  21583315.140   113421079.106       -2776.049          45.000    21583307.892    88380035.689       -2163.192          43.000  
G06  21435003.844   112641695.319       -2031.207          46.000    21434998.645    87772734.452       -1582.834          43.000  
G07  22265725.490   117007167.469        2366.141          46.000    22265717.370    91174388.634        1843.589          41.000  
G09  20000649.278   105104111.834        -328.395          49.000    20000642.370    81899287.656        -255.972          44.000  
G11  22042811.617   115835748.913         562.245          44.000    22042803.854    90261593.862         438.091          43.000  
G16  23465944.683   123314360.811        1130.265          43.000                                                                  
G20  23314782.048   122519994.448        2989.041          43.000                                                                  
G26  23864868.076   125410714.423       -1386.017          43.000    23864861.824    97722566.210       -1079.877          32.000  
G29  25372975.286   133335875.167         848.698          39.000    25372968.594   103898038.427         660.834          37.000  
G30  24694624.568   129771114.509        3378.305          42.000    24694619.619   101120209.727        2632.194          28.000  
G03  24143739.526   126876200.363       -3923.300          37.000    24143735.563    98864556.542       -3057.284          38.000  
> 2024 03 07 00 54 08.0000000  0 11                     
G04  21583843.537   113423855.039       -2776.130          45.000    21583836.133    88382198.748       -2163.319          43.000  
G06  21435390.382   112643726.722       -2031.688          46.000    21435385.248    87774317.358       -1583.342          43.000  
G07  22265275.292   117004801.598        2365.656          46.000    22265267.051    91172545.090        1843.481          41.000  
G09  20000711.728   105104440.326        -328.879          49.000    20000704.850    81899543.626        -256.455          44.000  
G11  22042704.653   115835186.962         561.472          44.000    22042696.763    90261155.972         437.611          43.000  
G16  23465729.552   123313230.826        1129.571          43.000                                                                  
G20  23314213.254   122517005.347        2988.890          43.000                                                                  
G26  23865131.840   125412100.522       -1386.444          45.000    23865125.571    97723646.321       -1079.907          32.000  
G29  25372814.002   133335026.977         847.844          39.000    25372807.272   103897377.490         660.170          37.000  
G30  24693981.617   129767735.939        3378.474          42.000    24693976.786   101117577.037        2632.670          28.000  
G03  24144485.924   126880123.640       -3923.304          37.000    24144482.176    98867613.626       -3057.230          38.000  
> 2024 03 07 00 54 09.0000000  0 11                     
G04  21584371.790   113426631.451       -2776.724          45.000    21584364.469    88384362.179       -2163.429          43.000  
G06  21435777.089   112645758.927       -2032.524          46.000    21435771.971    87775900.884       -1583.733          43.000  
G07  22264825.175   117002436.260        2365.172          46.000    22264816.945    91170701.972        1843.040          41.000  
G09  20000774.416   105104769.467        -329.372          49.000    20000767.482    81899800.097        -256.680          44.000  
G11  22042597.933   115834625.866         560.670          44.000    22042590.084    90260718.751         437.059          43.000  
G16  23465514.728   123312101.636        1128.794          43.000                                                                  
G20  23313644.507   122514016.614        2988.847          43.000                                                                  
G26  23865395.778   125413487.469       -1387.476          44.000    23865389.529    97724727.096       -1080.890          32.000  
G29  25372652.750   133334179.560         847.191          39.000    25372646.075   103896717.143         660.368          37.000  
G30  24693338.794   129764357.633        3378.496          41.000    24693334.065   101114944.603        2632.517          28.000  
G03  24145232.511   126884047.254       -3923.711          37.000    24145228.788    98870670.969       -3057.315          38.000  
> 2024 03 07 00 54 10.0000000  0 11                     
G04  21584900.186   113429408.355       -2777.185          45.000    21584892.991    88386526.018       -2164.150          43.000  
G06  21436164.102   112647791.967       -2033.392          46.000    21436158.845    87777485.084       -1584.645          43.000  
G07  22264375.184   117000071.505        2364.471          46.000    22264366.896    91168859.305        1842.374          41.000  
G09  20000837.186   105105099.317        -330.142          49.000    20000830.300    81900057.125        -257.295          44.000  
G11  22042491.314   115834065.662         559.744          44.000    22042483.481    90260282.233         436.122          43.000  
G16  23465300.120   123310973.312        1127.968          43.000                                                                  
G20  23313075.795   122511028.296        2988.062          43.000                                                                  
G26  23865659.800   125414875.245       -1388.037          44.000    23865653.634    97725808.491       -1081.842          32.000  
G29  25372491.610   133333332.953         846.111          39.000    25372484.982   103896057.463         659.373          37.000  
G30  24692695.969   129760979.652        3377.953          42.000    24692691.246   101112312.388        2632.008          28.000  
G03  24145979.202   126887971.204       -3924.276          37.000    24145975.538    98873728.600       -3057.666          38.000  
> 2024 03 07 00 54 11.0000000  0 11                     
G04  21585428.729   113432185.697       -2777.463          45.000    21585421.462    88388690.175       -2164.221          43.000  
G06  21436551.039   112649825.766       -2034.072          46.000    21436545.808    87779069.871       -1585.316          43.000  
G07  22263925.275   116997707.246        2364.028          46.000    22263917.031    91167017.040        1841.953          41.000  
G09  20000900.034   105105429.785        -330.647          49.000    20000893.321    81900314.631        -257.663          44.000  
G11  22042384.817   115833506.277         559.120          44.000    22042377.039    90259846.360         435.361          43.000  
G16  23465085.617   123309845.765        1127.321          43.000                                                                  
G20  23312507.228   122508040.313        2987.941          43.000                                                                  
G26  23865923.943   125416263.829       -1388.757          44.000    23865917.883    97726890.480       -1081.635          32.000  
G29  25372330.699   133332487.105         845.634          39.000    25372323.989   103895398.352         658.922          37.000  
G30  24692053.245   129757601.872        3377.549          42.000    24692048.427   101109680.461        2631.071          28.000  
G03  24146725.797   126891895.475       -3924.652          37.000    24146722.193    98876786.457       -3058.102          38.000  
> 2024 03 07 00 54 12.0000000  0 11                     
G04  21585957.299   113434963.439       -2778.119          45.000    21585949.983    88390854.647       -2164.923          43.000  
G06  21436938.146   112651860.295       -2035.001          46.000    21436932.963    87780655.191       -1585.631          43.000  
G07  22263475.438   116995343.462        2363.364          46.000    22263467.236    91165175.119        1841.542          41.000  
G09  20000963.097   105105760.843        -331.543          49.000    20000956.304    81900572.595        -258.252          44.000  
G11  22042278.442   115832947.689         558.064          44.000    22042270.683    90259411.082         434.743          43.000  
G16  23464871.222   123308718.973        1126.317          43.000                                                                  
G20  23311938.738   122505052.647        2987.419          43.000                                                                  
G26  23866188.395   125417653.158       -1389.642          44.000    23866182.367    97727973.050       -1082.794          32.000  
G29  25372169.852   133331641.966         844.632          39.000    25372163.229   103894739.813         658.134          37.000  
G30  24691410.606   129754224.278        3377.333          42.000    24691405.631   101107048.466        2632.230          28.000  
G03  24147472.690   126895819.955       -3924.742          37.000    24147469.018    98879844.510       -3058.370          38.000  
> 2024 03 07 00 54 13.0000000  0 11                     
G04  21586485.873   113437741.466       -2778.260          45.000    21586478.572    88393019.334       -2164.805          43.000  
G06  21437325.377   112653895.453       -2035.582          46.000    21437320.202    87782241.024       -1585.884          43.000  
G07  22263025.670   116992980.028        2363.176          46.000    22263017.521    91163333.492        1841.316          41.000  
G09  20001026.081   105106092.395        -331.828          49.000    20001019.441    81900830.950        -258.623          44.000  
G11  22042172.379   115832389.789         557.355          44.000    22042164.517    90258976.350         434.290          43.000  
G16  23464656.968   123307592.821        1125.760          43.000                                                                  
G20  23311370.356   122502065.187        2987.165          43.000                                                                  
G26  23866452.894   125419043.141       -1390.417          44.000    23866447.001    97729056.197       -1083.740          32.000  
G29  25372009.127   133330797.443         844.199          40.000    25372002.483   103894081.732         658.075          37.000  
G30  24690767.849   129750846.775        3377.468          42.000    24690762.954   101104416.646        2632.128          28.000  
G03  24148219.463   126899744.594       -3924.531          37.000    24148215.833    98882902.659       -3058.164          38.000  
> 2024 03 07 00 54 14.0000000  0 11                     
G04  21587014.630   113440520.109       -2778.835          45.000    21587007.236    88395184.521       -2165.347          43.000  
G06  21437712.773   112655931.541       -2036.568          46.000    21437707.557    87783827.597       -1586.783          43.000  
G07  22262576.062   116990617.296        2362.400          46.000    22262567.845    91161492.391        1841.038          41.000  
G09  20001089.363   105106424.755        -332.866          49.000    20001082.527    81901089.924        -259.416          44.000  
G11  22042066.352   115831832.874         556.547          44.000    22042058.533    90258542.399         433.482          43.000  
G16  23464442.784   123306467.634        1124.822          43.000                                                                  
G20  23310801.938   122499078.229        2986.828          43.000                                                                  
G26  23866717.567   125420434.102       -1391.351          44.000    23866711.735    97730140.093       -1084.869          32.000  
G29  25371848.626   133329953.853         843.285          39.000    25371841.897   103893424.376         657.151          37.000  
G30  24690125.200   129747469.689        3376.843          42.000    24690120.424   101101785.178        2631.681          28.000  
G03  24148966.546   126903669.745       -3925.611          38.000    24148962.814    98885961.184       -3058.048          38.000  
> 2024 03 07 00 54 15.0000000  0 11                     
G04  21587543.416   113443299.014       -2779.021          45.000    21587536.036    88397349.893       -2165.349          43.000  
G06  21438100.320   112657968.229       -2037.057          46.000    21438095.150    87785414.620       -1587.122          43.000  
G07  22262126.522   116988254.886        2362.084          46.000    22262118.220    91159651.550        1840.700          41.000  
G09  20001152.694   105106757.566        -333.112          49.000    20001145.897    81901349.252        -259.452          44.000  
G11  22041960.574   115831276.629         555.737          44.000    22041952.705    90258108.945         433.386          43.000  
G16  23464228.852   123305343.053        1124.383          43.000                                                                  
G20  23310233.581   122496091.447        2986.698          43.000                                                                  
G26  23866982.271   125421825.670       -1391.980          44.000    23866976.479    97731224.420       -1085.455          32.000  
G29  25371688.220   133329110.851         842.724          39.000    25371681.457   103892767.498         656.705          37.000  
G30  24689482.625   129744092.632        3377.095          42.000    24689477.797   101099153.668        2632.142          28.000  
G03  24149713.464   126907594.978       -3925.235          38.000    24149709.736    98889019.849       -3058.971          38.000  
> 2024 03 07 00 54 16.0000000  0 11                     
G04  21588072.416   113446078.208       -2779.371          45.000    21588064.971    88399515.507       -2165.828          43.000  
G06  21438488.125   112660005.520       -2037.455          46.000    21438482.735    87787002.127       -1587.565          43.000  
G07  22261677.074   116985892.832        2361.848          46.000    22261668.752    91157810.987        1840.568          41.000  
G09  20001216.087   105107090.853        -333.521          49.000    20001209.399    81901608.972        -259.963          44.000  
G11  22041854.852   115830721.053         555.269          44.000    22041846.992    90257676.030         432.760          43.000  
G16  23464014.948   123304219.126        1123.479          43.000                                                                  
G20  23309665.372   122493104.861        2986.275          43.000                                                                  
G26  23867247.298   125423217.881       -1392.425          44.000    23867241.387    97732309.241       -1084.827          32.000  
G29  25371527.948   133328268.455         842.252          39.000    25371521.143   103892111.101         656.008          37.000  
G30  24688840.008   129740715.674        3376.807          42.000    24688835.258   101096522.294        2630.950          27.000  
G03  24150460.610   126911520.334       -3925.394          38.000    24150456.662    98892078.561       -3058.737          38.000  
> 2024 03 07 00 54 17.0000000  0 11                     
G04  21588601.324   113448857.851       -2779.674          45.000    21588593.955    88401681.475       -2166.165          43.000  
G06  21438876.007   112662043.619       -2038.236          46.000    21438870.441    87788590.257       -1588.337          43.000  
G07  22261227.678   116983531.306        2361.340          46.000    22261219.489    91155970.859        1839.851          41.000  
G09  20001279.650   105107424.800        -334.157          49.000    20001272.968    81901869.188        -260.465          44.000  
G11  22041749.213   115830166.316         554.555          44.000    22041741.446    90257243.795         431.742          43.000  
G16  23463801.268   123303095.991        1122.864          43.000                                                                  
G20  23309097.139   122490118.631        2986.219          42.000                                                                  
G26  23867512.371   125424610.913       -1393.219          44.000    23867506.491    97733394.705       -1085.571          32.000  
G29  25371367.827   133327426.845         841.246          39.000    25371361.091   103891455.291         655.250          37.000  
G30  24688197.338   129737338.947        3377.030          42.000    24688192.620   101093891.106        2631.202          28.000  
G03  24151207.551   126915446.033       -3925.824          38.000    24151203.688    98895137.551       -3059.184          38.000  
> 2024 03 07 00 54 18.0000000  0 11                     
G04  21589130.311   113451637.929       -2780.350          45.000    21589122.943    88403847.748       -2166.393          43.000  
G06  21439263.988   112664082.459       -2039.164          46.000    21439258.473    87790178.969       -1588.997          43.000  
G07  22260778.375   116981170.268        2360.833          46.000    22260770.277    91154131.087        1839.641          40.000  
G09  20001343.306   105107759.353        -334.930          49.000    20001336.652    81902129.882        -261.180          44.000  
G11  22041643.882   115829612.415         553.559          44.000    22041635.969    90256812.167         431.249          42.000  
G16  23463587.700   123301973.642        1121.774          43.000                                                                  
G20  23308528.933   122487132.742        2985.729          42.000                                                                  
G26  23867777.548   125426004.724       -1394.263          44.000    23867771.784    97734480.781       -1085.931          32.000  
G29  25371207.825   133326585.945         840.554          39.000    25371201.120   103890800.054         654.639          37.000  
G30  24687554.929   129733962.461        3376.250          42.000    24687550.253   101091260.066        2630.978          28.000  
G03  24151954.783   126919371.995       -3926.320          38.000    24151950.649    98898196.746       -3059.585          38.000  
> 2024 03 07 00 54 19.0000000  0 11                     
G04  21589659.458   113454418.543       -2780.800          45.000    21589652.013    88406014.468       -2166.738          43.000  
G06  21439652.171   112666122.184       -2040.000          46.000    21439646.655    87791768.345       -1589.263          43.000  
G07  22260329.240   116978809.855        2360.436          46.000    22260321.088    91152291.791        1839.250          41.000  
G09  20001407.149   105108094.657        -335.514          49.000    20001400.420    81902391.151        -261.443          44.000  
G11  22041538.769   115829059.437         552.801          44.000    22041530.657    90256381.272         430.787          42.000  
G16  23463374.215   123300852.181        1121.174          43.000                                                                  
G20  23307960.716   122484147.301        2985.272          42.000                                                                  
G26  23868042.922   125427399.430       -1395.038          44.000    23868037.212    97735567.628       -1087.738          32.000  
G29  25371047.975   133325745.925         840.028          39.000    25371041.303   103890145.470         654.343          37.000  
G30  24686912.452   129730586.301        3375.959          41.000    24686907.642   101088629.247        2631.044          28.000  
G03  24152701.993   126923298.362       -3926.437          38.000    24152697.809    98901256.210       -3059.117          38.000  
> 2024 03 07 00 54 20.0000000  0 11                     
G04  21590188.675   113457199.567       -2781.466          45.000    21590181.321    88408181.487       -2167.090          43.000  
G06  21440040.474   112668162.637       -2040.995          46.000    21440034.906    87793358.325       -1590.405          43.000  
G07  22259880.195   116976449.911        2359.630          46.000    22259871.916    91150452.884        1838.734          41.000  
G09  20001471.149   105108430.544        -336.126          49.000    20001464.315    81902652.877        -261.779          44.000  
G11  22041433.652   115828507.257         551.804          44.000    22041425.636    90255951.005         429.948          43.000  
G16  23463160.884   123299731.486        1120.052          43.000                                                                  
G20  23307392.778   122481162.160        2984.778          42.000                                                                  
G26  23868308.512   125428794.890       -1395.886          44.000    23868302.705    97736654.986       -1088.257          32.000  
G29  25370888.220   133324906.634         838.720          39.000    25370881.610   103889491.464         653.885          37.000  
G30  24686270.076   129727210.322        3375.826          41.000    24686265.258   101085998.654        2630.706          28.000  
G03  24153449.132   126927224.982       -3926.752          38.000    24153445.143    98904315.960       -3060.071          38.000  
> 2024 03 07 00 54 21.0000000  0 11                     
G04  21590718.050   113459981.097       -2781.732          45.000    21590710.636    88410348.924       -2167.427          43.000  
G06  21440428.988   112670203.935       -2041.539          46.000    21440423.341    87794948.934       -1590.725          43.000  
G07  22259431.190   116974090.551        2359.193          46.000    22259423.031    91148614.417        1838.453          41.000  
G09  20001535.268   105108767.140        -336.771          49.000    20001528.290    81902915.167        -262.423          44.000  
G11  22041328.682   115827955.989         551.001          44.000    22041320.691    90255521.436         429.296          42.000  
G16  23462947.802   123298611.646        1119.418          43.000                                                                  
G20  23306824.832   122478177.451        2984.530          42.000                                                                  
G26  23868574.230   125430191.242       -1396.570          44.000    23868568.488    97737743.009       -1087.579          32.000  
G29  25370728.651   133324068.178         837.941          40.000    25370722.086   103888838.112         653.555          37.000  
G30  24685627.750   129723834.658        3375.742          42.000    24685623.115   101083368.317        2630.191          28.000  
G03  24154196.506   126931151.973       -3926.899          38.000    24154192.430    98907375.935       -3059.686          38.000  
> 2024 03 07 00 54 22.0000000  0 11                     
G04  21591247.479   113462763.046       -2782.370          45.000    21591240.042    88412516.678       -2168.151          43.000  
G06  21440817.656   112672245.986       -2042.634          46.000    21440811.953    87796540.139       -1591.547          43.000  
G07  22258982.257   116971731.686        2358.454          46.000    22258974.149    91146776.353        1837.571          41.000  
G09  20001599.492   105109104.361        -337.729          49.000    20001592.432    81903177.933        -263.147          44.000  
G11  22041223.902   115827405.526         549.980          44.000    22041215.919    90255092.517         428.409          42.000  
G16  23462734.866   123297492.583        1118.479          43.000                                                                  
G20  23306256.914   122475193.055        2984.159          42.000                                                                  
G26  23868840.125   125431588.361       -1397.681          44.000    23868834.344    97738831.695       -1089.429          32.000  
G29  25370569.263   133323230.423         837.682          40.000    25370562.753   103888185.356         652.428          37.000  
G30  24684985.288   129720459.204        3375.383          42.000    24684980.834   101080738.033        2630.619          28.000  
G03  24154943.882   126935079.277       -3927.873          38.000    24154939.759    98910436.149       -3060.067          38.000  
> 2024 03 07 00 54 23.0000000  0 11                     
G04  21591776.970   113465545.401       -2782.538          45.000    21591769.548    88414684.745       -2168.154          43.000  
G06  21441206.457   112674288.766       -2043.140          46.000    21441200.778    87798131.910       -1591.951          43.000  
G07  22258533.446   116969373.301        2358.084          46.000    22258525.255    91144938.641        1837.383          41.000  
G09  20001663.762   105109442.188        -338.243          49.000    20001656.699    81903441.178        -263.597          44.000  
G11  22041119.316   115826855.868         549.195          44.000    22041111.223    90254664.200         428.018          43.000  
G16  23462521.981   123296374.274        1117.771          43.000                                                                  
G20  23305689.037   122472208.986        2983.916          42.000                                                                  
G26  23869106.137   125432986.234       -1398.126          44.000    23869100.403    97739920.950       -1089.618          32.000  
G29  25370409.926   133322393.430         836.651          40.000    25370403.510   103887533.155         651.628          37.000  
G30  24684343.049   129717083.982        3374.894          42.000    24684338.478   101078108.041        2629.506          28.000  
G03  24155691.339   126939006.802       -3927.629          38.000    24155687.144    98913496.579       -3060.281          38.000  
> 2024 03 07 00 54 24.0000000  0 11                     
G04  21592306.535   113468328.246       -2782.979          45.000    21592299.271    88416853.194       -2168.657          43.000  
G06  21441595.335   112676332.360       -2043.932          46.000    21441589.662    87799724.329       -1592.771          43.000  
G07  22258084.727   116967015.466        2357.486          46.000    22258076.607    91143101.372        1836.914          41.000  
G09  20001728.211   105109780.685        -338.877          49.000    20001721.136    81903704.933        -263.947          44.000  
G11  22041014.829   115826307.080         548.398          44.000    22041006.754    90254236.569         427.375          42.000  
G16  23462309.243   123295256.800        1117.126          43.000                                                                  
G20  23305121.235   122469225.311        2983.500          42.000                                                                  
G26  23869372.419   125434384.957       -1399.042          44.000    23869366.542    97741010.849       -1090.277          32.000  
G29  25370250.792   133321557.225         835.965          40.000    25370244.295   103886881.559         651.098          37.000  
G30  24683700.852   129713709.001        3374.916          42.000    24683696.178   101075478.215        2629.553          28.000  
G03  24156438.788   126942934.671       -3927.959          38.000    24156434.612    98916557.255       -3060.540          38.000  
> 2024 03 07 00 54 25.0000000  0 11                     
G04  21592836.076   113471111.403       -2783.431          45.000    21592828.910    88419021.884       -2168.985          43.000  
G06  21441984.296   112678376.588       -2044.670          46.000    21441978.683    87801317.226       -1593.152          43.000  
G07  22257636.226   116964658.022        2357.116          46.000    22257627.995    91141264.396        1836.784          41.000  
G09  20001792.664   105110119.680        -339.266          49.000    20001785.702    81903969.097        -264.495          44.000  
G11  22040910.535   115825758.998         547.551          44.000    22040902.427    90253809.488         426.933          42.000  
G16  23462096.764   123294139.992        1116.355          43.000                                                                  
G20  23304553.517   122466241.855        2983.301          42.000                                                                  
G26  23869638.679   125435784.359       -1399.951          44.000    23869632.829    97742101.300       -1090.918          32.000  
G29  25370091.762   133320721.644         835.368          40.000    25370085.257   103886230.448         651.262          37.000  
G30  24683058.614   129710334.148        3374.615          42.000    24683054.033   101072848.384        2629.854          28.000  
G03  24157186.277   126946862.709       -3927.975          38.000    24157182.084    98919618.071       -3060.769          38.000  
> 2024 03 07 00 54 26.0000000  0 11                     
G04  21593365.744   113473894.962       -2783.718          45.000    21593358.634    88421190.901       -2169.298          43.000  
G06  21442373.432   112680421.593       -2045.553          46.000    21442367.901    87802910.736       -1593.944          43.000  
G07  22257187.749   116962301.061        2356.591          46.000    22257179.438    91139427.807        1836.327          41.000  
G09  20001857.336   105110459.298        -339.966          49.000    20001850.302    81904233.723        -264.828          44.000  
G11  22040806.425   115825211.714         546.949          44.000    22040798.232    90253383.054         426.018          42.000  
G16  23461884.464   123293023.953        1115.514          43.000                                                                  
G20  23303985.778   122463258.726        2982.809          42.000                                                                  
G26  23869905.148   125437184.514       -1400.641          44.000    23869899.211    97743192.335       -1091.522          32.000  
G29  25369932.847   133319886.830         834.312          40.000    25369926.317   103885579.948         649.997          37.000  
G30  24682416.422   129706959.494        3374.548          42.000    24682411.883   101070218.805        2629.750          27.000  
G03  24157933.644   126950791.022       -3928.169          38.000    24157929.553    98922679.110       -3061.296          38.000  
> 2024 03 07 00 54 27.0000000  0 11                     
G04  21593895.599   113476678.935       -2784.360          45.000    21593888.333    88423360.216       -2169.579          43.000  
G06  21442762.723   112682467.289       -2046.223          46.000    21442757.121    87804504.793       -1594.594          43.000  
G07  22256739.310   116959944.558        2356.177          46.000    22256731.036    91137591.572        1836.081          41.000  
G09  20001921.957   105110799.491        -340.706          49.000    20001915.027    81904498.815        -265.547          44.000  
G11  22040702.438   115824665.223         546.007          44.000    22040694.173    90252957.206         425.514          42.000  
G16  23461672.303   123291908.649        1114.675          43.000                                                                  
G20  23303418.101   122460275.893        2982.548          42.000                                                                  
G26  23870171.750   125438585.424       -1401.465          44.000    23870165.827    97744283.932       -1091.150          31.000  
G29  25369774.144   133319052.673         833.954          40.000    25369767.468   103884929.958         649.569          37.000  
G30  24681774.112   129703585.038        3374.248          42.000    24681769.768   101067589.334        2629.703          28.000  
G03  24158681.142   126954719.602       -3928.656          38.000    24158677.169    98925740.316       -3061.096          38.000  
> 2024 03 07 00 54 28.0000000  0 11                     
G04  21594425.367   113479463.396       -2784.840          45.000    21594418.179    88425529.942       -2170.152          43.000  
G06  21443152.114   112684513.833       -2047.154          46.000    21443146.570    87806099.507       -1595.222          43.000  
G07  22256290.947   116957588.640        2355.415          46.000    22256282.768    91135755.787        1835.403          41.000  
G09  20001986.814   105111140.387        -341.378          49.000    20001979.899    81904764.440        -265.932          44.000  
G11  22040598.541   115824119.635         544.878          44.000    22040590.374    90252532.066         424.755          42.000  
G16  23461460.199   123290794.221        1113.839          43.000                                                                  
G20  23302850.573   122457293.468        2982.257          42.000                                                                  
G26  23870438.495   125439987.195       -1402.240          44.000    23870432.585    97745376.236       -1092.182          31.000  
G29  25369615.638   133318219.397         832.664          41.000    25369608.908   103884280.650         648.989          37.000  
G30  24681131.992   129700210.877        3373.937          42.000    24681127.803   101064960.141        2629.358          28.000  
G03  24159428.768   126958648.556       -3929.429          38.000    24159424.816    98928801.829       -3061.559          38.000  
> 2024 03 07 00 54 29.0000000  0 11                     
G04  21594955.308   113482248.345       -2785.327          45.000    21594948.163    88427700.022       -2170.316          43.000  
G06  21443541.696   112686561.197       -2048.022          46.000    21443536.002    87807694.837       -1595.616          43.000  
G07  22255842.742   116955233.271        2354.956          46.000    22255834.566    91133920.446        1834.988          41.000  
G09  20002051.747   105111481.971        -342.217          49.000    20002044.874    81905030.612        -266.590          44.000  
G11  22040494.869   115823574.920         544.064          44.000    22040486.727    90252107.619         424.070          42.000  
G16  23461248.260   123289680.611        1113.133          43.000                                                                  
G20  23302283.065   122454311.451        2981.592          42.000                                                                  
G26  23870705.429   125441389.822       -1403.406          44.000    23870699.538    97746469.162       -1092.761          32.000  
G29  25369457.251   133317386.924         831.737          41.000    25369450.483   103883631.971         648.274          37.000  
G30  24680489.998   129696836.983        3373.765          42.000    24680485.646   101062331.123        2629.085          28.000  
G03  24160176.544   126962577.839       -3929.900          38.000    24160172.540    98931863.599       -3062.096          38.000  
> 2024 03 07 00 54 30.0000000  0 11                     
G04  21595485.361   113485033.716       -2785.566          45.000    21595478.237    88429870.452       -2170.744          43.000  
G06  21443931.414   112688609.305       -2048.712          46.000    21443925.791    87809290.781       -1596.418          43.000  
G07  22255394.658   116952878.414        2354.532          46.000    22255386.445    91132085.480        1834.677          41.000  
G09  20002116.842   105111824.163        -342.625          49.000    20002110.109    81905297.267        -267.058          44.000  
G11  22040391.332   115823031.027         543.318          43.000    22040383.250    90251683.804         423.336          42.000  
G16  23461036.575   123288567.782        1112.469          43.000                                                                  
G20  23301715.618   122451329.757        2981.461          42.000                                                                  
G26  23870972.533   125442793.210       -1403.937          44.000    23870966.625    97747562.791       -1094.525          32.000  
G29  25369299.026   133316555.179         831.095          41.000    25369292.112   103882983.886         647.099          37.000  
G30  24679847.964   129693463.315        3373.564          42.000    24679843.543   101059702.304        2628.896          28.000  
G03  24160924.301   126966507.371       -3929.675          38.000    24160920.354    98934925.584       -3061.993          38.000  
> 2024 03 07 00 54 31.0000000  0 11                     
G04  21596015.569   113487819.383       -2785.851          45.000    21596008.223    88432041.087       -2170.693          43.000  
G06  21444321.237   112690658.039       -2049.019          46.000    21444315.589    87810887.181       -1596.577          43.000  
G07  22254946.611   116950523.902        2354.462          46.000    22254938.391    91130250.798        1834.743          41.000  
G09  20002182.102   105112166.840        -342.875          49.000    20002175.305    81905564.279        -267.086          44.000  
G11  22040287.881   115822487.798         543.043          43.000    22040279.885    90251260.503         423.199          42.000  
G16  23460824.838   123287455.605        1111.915          43.000                                                                  
G20  23301148.233   122448348.261        2981.558          42.000                                                                  
G26  23871239.714   125444197.248       -1404.364          44.000    23871233.781    97748656.808       -1093.884          32.000  
G29  25369140.849   133315724.033         830.945          41.000    25369133.978   103882336.236         647.287          37.000  
G30  24679205.969   129690089.732        3373.769          42.000    24679201.410   101057073.503        2629.023          28.000  
G03  24161672.257   126970437.048       -3929.380          38.000    24161668.245    98937987.678       -3061.921          38.000  
> 2024 03 07 00 54 32.0000000  0 11                     
G04  21596545.741   113490605.407       -2786.244          45.000    21596538.381    88434212.020       -2171.025          43.000  
G06  21444711.166   112692707.464       -2049.910          46.000    21444705.517    87812484.144       -1597.159          43.000  
G07  22254498.611   116948169.831        2353.706          46.000    22254490.452    91128416.456        1834.235          41.000  
G09  20002247.409   105112510.076        -343.562          49.000    20002240.695    81905831.739        -267.642          44.000  
G11  22040184.457   115821945.352         541.824          43.000    22040176.707    90250837.810         422.556          42.000  
G16  23460613.262   123286344.140        1111.113          43.000                                                                  
G20  23300580.862   122445367.038        2981.301          42.000                                                                  
G26  23871507.103   125445601.993       -1405.078          44.000    23871501.060    97749751.433       -1095.117          32.000  
G29  25368982.811   133314893.569         830.083          40.000    25368976.008   103881689.088         647.294          37.000  
G30  24678563.941   129686716.293        3373.536          42.000    24678559.350   101054444.901        2628.727          28.000  
G03  24162420.199   126974366.983       -3930.058          38.000    24162416.142    98941049.954       -3062.286          38.000  
> 2024 03 07 00 54 33.0000000  0 11                     
G04  21597076.117   113493391.941       -2786.926          45.000    21597068.639    88436383.352       -2171.792          43.000  
G06  21445101.309   112694757.734       -2051.000          46.000    21445095.713    87814081.754       -1598.101          43.000  
G07  22254050.706   116945816.331        2353.134          46.000    22254042.651    91126582.572        1833.376          41.000  
G09  20002312.855   105112854.027        -344.490          49.000    20002306.182    81906099.759        -268.496          44.000  
G11  22040081.396   115821403.793         540.895          43.000    22040073.588    90250415.821         421.525          42.000  
G16  23460401.903   123285233.546        1109.920          43.000                                                                  
G20  23300013.684   122442386.257        2980.284          42.000                                                                  
G26  23871774.590   125447007.627       -1406.281          44.000    23871768.616    97750846.702       -1095.776          32.000  
G29  25368824.950   133314063.940         829.060          40.000    25368818.071   103881042.642         646.027          37.000  
G30  24677921.997   129683343.198        3372.579          42.000    24677917.555   101051816.491        2628.357          28.000  
G03  24163168.201   126978297.263       -3930.972          39.000    24163164.140    98944112.479       -3062.709          39.000  
> 2024 03 07 00 54 34.0000000  0 11                     
G04  21597606.502   113496178.926       -2787.214          45.000    21597598.940    88438555.029       -2171.889          43.000  
G06  21445491.605   112696808.776       -2051.266          46.000    21445485.984    87815679.969       -1598.425          43.000  
G07  22253602.911   116943463.373        2352.653          46.000    22253594.834    91124749.092        1833.347          41.000  
G09  20002378.406   105113198.601        -344.739          49.000    20002371.660    81906368.255        -268.679          44.000  
G11  22039978.534   115820863.068         540.507          43.000    22039970.731    90249994.479         421.241          42.000  
G16  23460190.745   123284123.746        1109.521          43.000                                                                  
G20  23299446.444   122439405.822        2980.221          42.000                                                                  
G26  23872042.308   125448414.063       -1406.738          44.000    23872036.122    97751942.625       -1095.392          32.000  
G29  25368667.127   133313235.082         828.633          40.000    25368660.378   103880396.768         645.622          37.000  
G30  24677280.149   129679970.302        3372.927          42.000    24677275.795   101049188.337        2627.823          28.000  
G03  24163916.132   126982227.823       -3930.431          38.000    24163912.025    98947175.280       -3062.719          38.000  
> 2024 03 07 00 54 35.0000000  0 11                     
G04  21598136.787   113498966.323       -2787.810          45.000    21598129.325    88440727.029       -2172.443          43.000  
G06  21445882.194   112698860.571       -2052.499          46.000    21445876.523    87817278.777       -1599.280          43.000  
G07  22253155.252   116941110.894        2352.018          46.000    22253147.210    91122915.986        1832.755          41.000  
G09  20002444.169   105113543.797        -345.712          49.000    20002437.260    81906637.237        -269.327          44.000  
G11  22039875.814   115820323.174         539.234          43.000    22039867.907    90249573.780         420.279          42.000  
G16  23459979.726   123283014.731        1108.296          43.000                                                                  
G20  23298879.351   122436425.703        2979.744          42.000                                                                  
G26  23872310.051   125449821.276       -1407.886          44.000    23872303.919    97753039.173       -1096.985          33.000  
G29  25368509.554   133312406.953         827.621          40.000    25368502.753   103879751.477         644.788          37.000  
G30  24676638.336   129676597.637        3372.536          42.000    24676633.846   101046560.243        2627.632          28.000  
G03  24164664.086   126986158.703       -3931.203          38.000    24164660.086    98950238.293       -3063.250          38.000  
> 2024 03 07 00 54 36.0000000  0 11                     
G04  21598667.323   113501754.122       -2788.011          45.000    21598659.787    88442899.331       -2172.458          43.000  
G06  21446272.747   112700913.086       -2053.088          46.000    21446267.097    87818878.129       -1599.551          43.000  
G07  22252707.618   116938758.891        2351.674          46.000    22252699.716    91121083.255        1832.584          41.000  
G09  20002509.936   105113889.589        -346.193          49.000    20002503.109    81906906.686        -269.770          44.000  
G11  22039773.185   115819784.051         538.879          44.000    22039765.280    90249153.697         419.674          43.000  
G16  23459768.912   123281906.461        1107.674          43.000                                                                  
G20  23298312.136   122433445.911        2979.568          42.000                                                                  
G26  23872577.989   125451229.229       -1408.368          44.000    23872571.786    97754136.271       -1097.296          33.000  
G29  25368352.035   133311579.558         827.025          40.000    25368345.183   103879106.767         644.163          37.000  
G30  24675996.557   129673225.182        3371.872          42.000    24675992.146   101043932.349        2627.468          28.000  
G03  24165412.116   126990089.812       -3931.489          38.000    24165408.165    98953301.490       -3063.214          38.000  
> 2024 03 07 00 54 37.0000000  0 11                     
G04  21599197.875   113504542.278       -2788.430          45.000    21599190.431    88445071.917       -2172.606          43.000  
G06  21446663.430   112702966.295       -2053.656          46.000    21446657.747    87820478.040       -1600.308          43.000  
G07  22252260.174   116936407.316        2351.402          46.000    22252252.217    91119250.870        1832.274          41.000  
G09  20002575.914   105114235.930        -346.726          49.000    20002568.986    81907176.564        -270.091          44.000  
G11  22039670.765   115819245.682         538.011          44.000    22039662.752    90248734.196         419.136          43.000  
G16  23459558.143   123280798.900        1106.998          43.000                                                                  
G20  23297745.085   122430466.374        2979.268          42.000                                                                  
G26  23872846.109   125452637.903       -1409.088          45.000    23872840.031    97755233.947       -1097.894          33.000  
G29  25368194.719   133310752.839         826.416          40.000    25368187.919   103878462.574         643.990          36.000  
G30  24675354.936   129669852.843        3372.086          42.000    24675350.251   101041304.541        2627.505          28.000  
G03  24166160.170   126994021.130       -3931.670          38.000    24166156.331    98956364.874       -3063.642          38.000  
> 2024 03 07 00 54 38.0000000  0 11                     
G04  21599728.368   113507330.724       -2788.497          45.000    21599721.033    88447244.740       -2172.937          43.000  
G06  21447054.238   112705020.110       -2053.951          46.000    21447048.626    87822078.408       -1600.425          43.000  
G07  22251812.797   116934056.102        2351.053          46.000    22251804.816    91117418.754        1832.217          41.000  
G09  20002641.906   105114582.754        -346.931          49.000    20002634.998    81907446.810        -270.169          44.000  
G11  22039568.365   115818708.009         537.399          44.000    22039560.448    90248315.220         418.886          43.000  
G16  23459347.492   123279691.980        1106.799          43.000                                                                  
G20  23297178.259   122427487.039        2979.290          42.000                                                                  
G26  23873114.300   125454047.220       -1409.595          45.000    23873108.166    97756332.099       -1098.151          33.000  
G29  25368037.542   133309926.709         826.112          41.000    25368030.674   103877818.860         643.149          36.000  
G30  24674713.209   129666480.607        3372.440          41.000    24674708.518   101038676.812        2628.160          28.000  
G03  24166908.319   126997952.588       -3931.371          38.000    24166904.492    98959428.340       -3063.375          38.000  
> 2024 03 07 00 54 39.0000000  0 11                     
G04  21600259.134   113510119.557       -2788.978          45.000    21600251.652    88449417.854       -2173.261          43.000  
G06  21447445.248   112707074.656       -2054.905          46.000    21447439.541    87823679.359       -1601.196          43.000  
G07  22251365.486   116931705.356        2350.411          46.000    22251357.549    91115587.006        1831.425          41.000  
G09  20002708.061   105114930.165        -347.783          49.000    20002701.176    81907717.530        -271.019          44.000  
G11  22039466.105   115818171.113         536.382          44.000    22039458.321    90247896.859         418.068          43.000  
G16  23459137.143   123278585.820        1105.680          43.000                                                                  
G20  23296611.361   122424508.007        2978.799          42.000                                                                  
G26  23873382.626   125455457.289       -1410.449          45.000    23873376.595    97757430.861       -1099.200          33.000  
G29  25367880.503   133309101.315         824.814          41.000    25367873.497   103877175.660         643.102          36.000  
G30  24674071.517   129663108.562        3371.913          41.000    24674066.808   101036049.240        2627.507          28.000  
G03  24167656.414   127001884.311       -3932.013          38.000    24167652.677    98962492.027       -3063.713          38.000  
> 2024 03 07 00 54 40.0000000  0 11                     
G04  21600789.899   113512908.858       -2789.537          45.000    21600782.479    88451591.333       -2173.655          43.000  
G06  21447836.241   112709130.000       -2055.652          46.000    21447830.614    87825280.926       -1601.940          43.000  
G07  22250918.348   116929355.155        2349.873          46.000    22250910.218    91113755.683        1830.980          41.000  
G09  20002774.299   105115278.250        -348.522          49.000    20002767.407    81907988.752        -271.545          44.000  
G11  22039364.078   115817635.086         535.480          44.000    22039356.336    90247479.165         417.376          43.000  
G16  23458926.830   123277480.476        1104.956          43.000                                                                  
G20  23296044.565   122421529.350        2978.366          42.000                                                                  
G26  23873651.036   125456868.181       -1411.267          45.000    23873645.137    97758530.263       -1100.092          33.000  
G29  25367723.487   133308276.694         824.167          41.000    25367716.544   103876533.133         642.156          36.000  
G30  24673429.763   129659736.776        3371.456          41.000    24673425.038   101033421.910        2627.091          28.000  
G03  24168404.607   127005816.357       -3932.400          38.000    24168400.916    98965555.952       -3064.115          38.000  
> 2024 03 07 00 54 41.0000000  0 11                     
G04  21601320.810   113515698.686       -2790.198          45.000    21601313.448    88453765.229       -2174.119          43.000  
G06  21448227.480   112711186.202       -2056.718          46.000    21448221.869    87826883.154       -1602.518          43.000  
G07  22250471.286   116927005.542        2349.240          46.000    22250463.100    91111924.824        1830.345          41.000  
G09  20002840.750   105115627.037        -349.335          49.000    20002833.652    81908260.546        -272.349          44.000  
G11  22039262.284   115817099.963         534.545          44.000    22039254.541    90247062.197         416.553          43.000  
G16  23458716.698   123276376.018        1103.732          43.000                                                                  
G20  23295477.836   122418551.129        2977.809          42.000                                                                  
G26  23873919.630   125458279.950       -1412.170          45.000    23873913.909    97759630.333       -1100.415          33.000  
G29  25367566.625   133307452.913         823.450          41.000    25367559.727   103875891.232         641.186          37.000  
G30  24672788.283   129656365.324        3371.003          41.000    24672783.431   101030794.767        2627.073          28.000  
G03  24169152.846   127009748.769       -3932.731          38.000    24169149.226    98968620.182       -3064.469          38.000  
> 2024 03 07 00 54 42.0000000  0 11                     
G04  21601851.810   113518488.958       -2790.405          45.000    21601844.451    88455939.457       -2174.321          43.000  
G06  21448618.913   112713243.173       -2057.555          46.000    21448613.370    87828486.001       -1603.335          42.000  
G07  22250024.235   116924656.454        2348.685          46.000    22250016.222    91110094.365        1829.907          41.000  
G09  20002907.186   105115976.468        -349.864          49.000    20002900.204    81908532.829        -272.775          44.000  
G11  22039160.719   115816565.697         533.549          44.000    22039152.936    90246645.880         415.909          43.000  
G16  23458506.722   123275272.351        1103.208          43.000                                                                  
G20  23294911.042   122415573.262        2977.476          42.000                                                                  
G26  23874188.442   125459692.530       -1413.049          45.000    23874182.657    97760731.078       -1101.343          33.000  
G29  25367410.028   133306629.918         822.230          40.000    25367403.046   103875249.902         641.261          36.000  
G30  24672146.756   129652994.082        3370.951          42.000    24672141.985   101028167.811        2627.372          28.000  
G03  24169901.243   127013681.491       -3932.958          38.000    24169897.674    98971684.635       -3064.548          38.000  
> 2024 03 07 00 54 43.0000000  0 11                     
G04  21602382.839   113521279.527       -2790.948          45.000    21602375.496    88458113.924       -2174.710          43.000  
G06  21449010.481   112715300.771       -2058.157          46.000    21449004.943    87830089.321       -1603.867          42.000  
G07  22249577.283   116922307.726        2348.427          46.000    22249569.217    91108264.181        1829.911          41.000  
G09  20002973.762   105116326.388        -350.269          49.000    20002966.811    81908805.490        -272.772          44.000  
G11  22039059.120   115816032.099         532.953          44.000    22039051.428    90246230.098         415.379          43.000  
G16  23458296.902   123274169.337        1102.555          43.000                                                                  
G20  23294344.341   122412595.593        2977.443          42.000                                                                  
G26  23874457.394   125461105.756       -1413.629          45.000    23874451.636    97761832.273       -1101.440          33.000  
G29  25367253.595   133305807.517         822.164          40.000    25367246.575   103874609.101         640.405          36.000  
G30  24671505.281   129649622.942        3370.841          41.000    24671500.576   101025540.990        2627.172          27.000  
G03  24170649.813   127017614.354       -3932.753          38.000    24170646.016    98974749.201       -3064.717          38.000  
> 2024 03 07 00 54 44.0000000  0 11                     
G04  21602913.873   113524070.587       -2791.251          45.000    21602906.621    88460288.767       -2174.786          42.000  
G06  21449402.126   112717359.190       -2058.785          46.000    21449396.772    87831693.264       -1604.092          41.000  
G07  22249130.423   116919959.569        2348.045          46.000    22249122.380    91106434.458        1829.526          40.000  
G09  20003040.487   105116676.997        -350.887          49.000    20003033.657    81909078.692        -273.364          43.000  
G11  22038957.863   115815499.398         532.361          44.000    22038950.035    90245815.004         414.813          42.000  
G16  23458087.088   123273067.157        1101.990          42.000                                                                  
G20  23293777.782   122409618.320        2977.353          42.000                                                                  
G26  23874726.642   125462519.838       -1414.307          45.000    23874720.846    97762934.165       -1102.301          32.000  
G29  25367097.192   133304985.938         821.310          40.000    25367090.183   103873968.894         640.024          36.000  
G30  24670863.713   129646252.087        3370.886          41.000    24670859.094   101022914.387        2625.897          27.000  
G03  24171398.247   127021547.586       -3933.191          38.000    24171394.475    98977814.061       -3065.147          37.000  
> 2024 03 07 00 54 45.0000000  0 11                     
G04  21603445.018   113526862.100       -2791.580          45.000    21603437.822    88462463.988       -2175.432          42.000  
G06  21449793.956   112719418.406       -2059.564          46.000    21449788.687    87833297.850       -1604.867          42.000  
G07  22248683.746   116917611.963        2347.281          46.000    22248675.676    91104605.143        1829.102          40.000  
G09  20003107.358   105117028.274        -351.623          49.000    20003100.415    81909352.416        -273.907          43.000  
G11  22038856.648   115814967.560         531.265          44.000    22038848.872    90245400.588         413.989          42.000  
G16  23457877.444   123271965.817        1101.123          43.000                                                                  
G20  23293211.337   122406641.455        2976.525          42.000                                                                  
G26  23874995.880   125463934.737       -1415.271          45.000    23874990.174    97764036.678       -1103.070          32.000  
G29  25366940.922   133304165.156         820.427          40.000    25366934.062   103873329.316         639.335          36.000  
G30  24670222.407   129642881.511        3370.487          41.000    24670217.758   101020287.879        2626.652          27.000  
G03  24172146.757   127025481.134       -3933.789          39.000    24172142.974    98980879.166       -3065.543          37.000  
> 2024 03 07 00 54 46.0000000  0 11                     
G04  21603976.218   113529653.955       -2791.942          45.000    21603969.164    88464639.462       -2175.494          43.000  
G06  21450185.949   112721478.283       -2060.116          46.000    21450180.650    87834902.946       -1605.161          42.000  
G07  22248237.039   116915264.738        2347.135          46.000    22248229.005    91102776.143        1828.932          41.000  
G09  20003174.297   105117380.064        -351.826          49.000    20003167.365    81909626.545        -274.210          44.000  
G11  22038755.622   115814436.433         530.988          44.000    22038747.855    90244986.725         413.639          43.000  
G16  23457667.930   123270865.161        1100.409          43.000                                                                  
G20  23292644.828   122403664.799        2976.774          42.000                                                                  
G26  23875265.201   125465350.325       -1415.955          45.000    23875259.474    97765139.729       -1103.735          33.000  
G29  25366784.869   133303345.011         819.872          40.000    25366777.899   103872690.227         639.261          36.000  
G30  24669580.915   129639511.044        3370.733          41.000    24669576.397   101017661.564        2626.228          28.000  
G03  24172895.297   127029414.844       -3933.547          38.000    24172891.552    98983944.402       -3065.369          38.000  
> 2024 03 07 00 54 47.0000000  0 11                     
G04  21604507.590   113532446.315       -2792.638          45.000    21604500.479    88466815.331       -2176.380          44.000  
G06  21450578.142   112723538.987       -2061.108          46.000    21450572.722    87836508.678       -1605.769          43.000  
G07  22247790.442   116912918.102        2346.267          46.000    22247782.501    91100947.597        1828.278          41.000  
G09  20003241.307   105117732.568        -353.024          49.000    20003234.441    81909901.211        -274.917          45.000  
G11  22038654.670   115813906.215         529.765          44.000    22038646.964    90244573.563         412.876          43.000  
G16  23457458.720   123269765.367        1099.389          43.000                                                                  
G20  23292078.466   122400688.578        2975.778          42.000                                                                  
G26  23875534.692   125466766.767       -1416.827          45.000    23875529.047    97766243.434       -1103.815          33.000  
G29  25366629.063   133302525.713         818.701          40.000    25366621.988   103872051.810         638.000          37.000  
G30  24668939.592   129636140.896        3369.936          41.000    24668935.167   101015035.465        2626.173          28.000  
G03  24173643.919   127033348.943       -3934.196          39.000    24173640.099    98987009.934       -3065.859          38.000  
> 2024 03 07 00 54 48.0000000  0 11                     
G04  21605039.040   113535239.116       -2792.958          45.000    21605031.898    88468991.524       -2176.220          43.000  
G06  21450970.425   112725600.461       -2061.609          46.000    21450965.082    87838115.050       -1606.627          42.000  
G07  22247343.939   116910571.983        2346.009          46.000    22247335.999    91099119.448        1828.226          41.000  
G09  20003308.580   105118085.700        -353.365          49.000    20003301.607    81910176.381        -275.226          44.000  
G11  22038554.086   115813376.837         528.992          44.000    22038546.145    90244161.060         412.099          42.000  
G16  23457249.552   123268666.368        1098.718          43.000                                                                  
G20  23291512.212   122397712.706        2975.775          42.000                                                                  
G26  23875804.342   125468184.013       -1417.566          45.000    23875798.796    97767347.827       -1105.414          33.000  
G29  25366473.359   133301707.164         818.284          40.000    25366466.289   103871413.986         637.775          36.000  
G30  24668298.312   129632770.969        3369.881          41.000    24668293.860   101012409.596        2625.417          28.000  
G03  24174392.698   127037283.331       -3934.593          38.000    24174388.693    98990075.676       -3065.814          37.000  
> 2024 03 07 00 54 49.0000000  0 11                     
G04  21605570.599   113538032.290       -2793.442          45.000    21605563.487    88471168.035       -2176.739          43.000  
G06  21451362.770   112727662.650       -2062.546          46.000    21451357.516    87839721.937       -1607.141          42.000  
G07  22246897.575   116908226.313        2345.495          46.000    22246889.649    91097291.666        1827.507          40.000  
G09  20003375.765   105118439.401        -353.866          49.000    20003368.978    81910451.996        -275.737          43.000  
G11  22038453.443   115812848.225         528.342          44.000    22038445.504    90243749.164         411.450          42.000  
G16  23457040.599   123267568.105        1097.999          43.000                                                                  
G20  23290945.927   122394737.109        2975.634          42.000                                                                  
G26  23876074.071   125469601.990       -1418.311          45.000    23876068.665    97768452.707       -1105.133          32.000  
G29  25366317.727   133300889.315         817.526          40.000    25366310.711   103870776.707         636.967          36.000  
G30  24667657.122   129629401.237        3369.654          41.000    24667652.572   101009783.847        2625.368          28.000  
G03  24175141.376   127041217.963       -3934.971          39.000    24175137.406    98993141.611       -3065.960          37.000  
> 2024 03 07 00 54 50.0000000  0 11                     
G04  21606102.264   113540825.802       -2793.879          45.000    21606095.073    88473344.787       -2177.104          42.000  
G06  21451755.414   112729725.506       -2063.337          46.000    21451749.969    87841329.355       -1607.635          42.000  
G07  22246451.301   116905881.059        2344.910          46.000    22246443.310    91095464.187        1827.159          40.000  
G09  20003443.178   105118793.643        -354.655          49.000    20003436.349    81910728.034        -276.397          43.000  
G11  22038353.117   115812320.356         527.135          44.000    22038345.166    90243337.827         410.600          42.000  
G16  23456831.695   123266470.543        1096.828          43.000                                                                  
G20  23290379.771   122391761.772        2975.121          42.000                                                                  
G26  23876344.092   125471020.666       -1419.165          45.000    23876338.631    97769558.156       -1104.840          32.000  
G29  25366162.216   133300072.117         816.524          41.000    25366155.231   103870139.924         636.232          35.000  
G30  24667015.837   129626031.620        3369.237          41.000    24667011.363   101007158.141        2625.639          27.000  
G03  24175890.151   127045152.752       -3935.144          39.000    24175886.187    98996207.685       -3066.020          37.000  
> 2024 03 07 00 54 51.0000000  0 11                     
G04  21606633.846   113543619.784       -2794.052          45.000    21606626.743    88475521.918       -2177.144          43.000  
G06  21452148.111   112731789.161       -2063.867          46.000    21452142.702    87842937.412       -1608.341          43.000  
G07  22246005.110   116903536.351        2344.474          46.000    22245997.084    91093637.146        1826.961          41.000  
G09  20003510.683   105119148.559        -355.186          49.000    20003503.929    81911004.588        -276.575          44.000  
G11  22038252.856   115811793.341         526.679          44.000    22038244.922    90242927.173         410.257          42.000  
G16  23456622.991   123265373.785        1096.409          43.000                                                                  
G20  23289813.580   122388786.822        2974.727          42.000                                                                  
G26  23876614.226   125472440.174       -1419.891          45.000    23876608.795    97770664.287       -1106.049          33.000  
G29  25366006.967   133299255.717         816.081          41.000    25365999.861   103869503.773         635.841          36.000  
G30  24666374.576   129622662.280        3369.423          41.000    24666370.305   101004532.716        2625.044          28.000  
G03  24176639.064   127049087.898       -3935.333          39.000    24176635.030    98999274.030       -3066.218          37.000  
> 2024 03 07 00 54 52.0000000  0 11                     
G04  21607165.694   113546414.274       -2794.776          45.000    21607158.568    88477699.442       -2177.794          44.000  
G06  21452540.936   112733853.662       -2064.830          46.000    21452535.612    87844546.104       -1609.031          44.000  
G07  22245559.045   116901192.229        2343.821          46.000    22245550.951    91091810.558        1826.439          42.000  
G09  20003578.388   105119504.163        -355.946          49.000    20003571.565    81911281.679        -277.250          45.000  
G11  22038152.810   115811267.230         525.644          44.000    22038144.768    90242517.207         409.518          43.000  
G16  23456414.510   123264277.905        1095.416          43.000                                                                  
G20  23289247.544   122385812.283        2974.385          42.000                                                                  
G26  23876884.486   125473860.536       -1420.746          45.000    23876879.075    97771771.072       -1107.587          33.000  
G29  25365851.914   133298440.168         815.051          41.000    25365844.613   103868868.281         634.773          37.000  
G30  24665733.397   129619293.246        3368.940          41.000    24665729.376   101001907.447        2624.883          28.000  
G03  24177387.939   127053023.389       -3935.418          39.000    24177383.973    99002340.663       -3066.776          38.000  
> 2024 03 07 00 54 53.0000000  0 11                     
G04  21607697.531   113549209.163       -2794.879          45.000    21607690.376    88479877.272       -2177.757          43.000  
G06  21452933.940   112735918.886       -2065.518          46.000    21452928.663    87846155.377       -1609.551          43.000  
G07  22245113.052   116898848.586        2343.434          46.000    22245104.980    91089984.345        1825.953          41.000  
G09  20003646.155   105119860.369        -356.255          49.000    20003639.199    81911559.250        -277.643          44.000  
G11  22038052.890   115810741.911         525.154          44.000    22038044.868    90242107.872         409.062          43.000  
G16  23456206.115   123263182.769        1094.952          43.000                                                                  
G20  23288681.530   122382838.056        2974.237          42.000                                                                  
G26  23877155.009   125475281.665       -1421.338          45.000    23877149.511    97772878.447       -1107.867          33.000  
G29  25365696.709   133297625.348         814.387          41.000    25365689.488   103868233.358         634.634          37.000  
G30  24665092.272   129615924.409        3368.941          41.000    24665088.221   100999282.391        2625.299          28.000  
G03  24178136.698   127056959.181       -3936.099          39.000    24178132.986    99005407.511       -3067.129          37.000  
> 2024 03 07 00 54 54.0000000  0 11                     
G04  21608229.502   113552004.462       -2795.525          45.000    21608222.460    88482055.433       -2178.366          43.000  
G06  21453327.054   112737984.850       -2066.251          46.000    21453321.809    87847765.198       -1609.858          43.000  
G07  22244667.139   116896505.416        2343.120          46.000    22244659.052    91088158.503        1825.608          41.000  
G09  20003714.114   105120217.183        -357.207          49.000    20003707.120    81911837.279        -278.382          44.000  
G11  22037953.059   115810217.391         524.220          44.000    22037944.992    90241699.154         408.479          43.000  
G16  23455997.915   123262088.409        1094.025          43.000                                                                  
G20  23288115.611   122379864.149        2973.879          42.000                                                                  
G26  23877425.538   125476703.563       -1422.333          44.000    23877420.185    97773986.400       -1108.197          33.000  
G29  25365541.851   133296811.237         813.571          41.000    25365534.576   103867598.977         633.918          36.000  
G30  24664451.315   129612555.788        3368.490          41.000    24664447.241   100996657.475        2624.690          28.000  
G03  24178885.771   127060895.195       -3936.210          39.000    24178882.022    99008474.540       -3067.298          38.000  
> 2024 03 07 00 54 55.0000000  0 11                     
G04  21608761.557   113554800.070       -2795.968          45.000    21608754.525    88484233.829       -2178.729          43.000  
G06  21453720.309   112740051.451       -2067.311          46.000    21453715.096    87849375.536       -1610.728          43.000  
G07  22244221.355   116894162.640        2342.347          46.000    22244213.215    91086332.974        1824.938          41.000  
G09  20003782.095   105120574.492        -357.872          49.000    20003775.121    81912115.699        -278.759          44.000  
G11  22037853.427   115809693.578         523.325          44.000    22037845.372    90241290.994         407.649          43.000  
G16  23455789.860   123260994.708        1093.076          43.000                                                                  
G20  23287549.742   122376890.469        2973.363          42.000                                                                  
G26  23877696.195   125478126.111       -1423.041          44.000    23877690.911    97775094.864       -1108.862          33.000  
G29  25365387.160   133295997.746         812.864          41.000    25365379.856   103866965.108         633.392          36.000  
G30  24663810.258   129609187.259        3368.197          41.000    24663806.414   100994032.663        2624.490          28.000  
G03  24179634.782   127064831.372       -3936.434          39.000    24179630.982    99011541.665       -3067.296          37.000  
> 2024 03 07 00 54 56.0000000  0 11                     
G04  21609293.612   113557596.065       -2796.058          45.000    21609286.600    88486412.520       -2178.664          43.000  
G06  21454113.804   112742118.768       -2067.750          46.000    21454108.530    87850986.435       -1611.187          43.000  
G07  22243775.628   116891820.322        2342.081          46.000    22243767.478    91084507.770        1825.249          41.000  
G09  20003850.167   105120932.380        -358.105          49.000    20003843.219    81912394.585        -279.197          44.000  
G11  22037753.988   115809170.559         522.629          44.000    22037745.863    90240883.443         407.272          43.000  
G16  23455581.847   123259901.762        1092.664          43.000                                                                  
G20  23286983.977   122373917.080        2973.496          42.000                                                                  
G26  23877967.023   125479549.421       -1423.694          44.000    23877961.845    97776203.951       -1109.247          33.000  
G29  25365232.522   133295184.976         812.256          41.000    25365225.231   103866331.787         632.805          36.000  
G30  24663169.209   129605818.919        3368.538          41.000    24663165.478   100991407.941        2625.072          28.000  
G03  24180383.926   127068767.814       -3936.549          39.000    24180380.043    99014609.040       -3067.379          38.000  
> 2024 03 07 00 54 57.0000000  0 11                     
G04  21609825.731   113560392.466       -2796.647          45.000    21609818.658    88488591.532       -2178.972          43.000  
G06  21454507.294   112744186.814       -2068.480          46.000    21454502.201    87852597.903       -1611.780          43.000  
G07  22243330.026   116889478.497        2341.492          46.000    22243321.926    91082682.977        1824.496          41.000  
G09  20003918.338   105121290.874        -358.805          49.000    20003911.413    81912673.928        -279.688          44.000  
G11  22037654.660   115808648.332         521.810          44.000    22037646.523    90240476.505         406.632          43.000  
G16  23455373.944   123258809.562        1091.807          43.000                                                                  
G20  23286418.233   122370944.032        2972.761          42.000                                                                  
G26  23878237.896   125480973.476       -1424.347          44.000    23878232.848    97777313.625       -1110.547          33.000  
G29  25365078.020   133294372.931         811.602          41.000    25365070.760   103865699.014         632.322          37.000  
G30  24662528.265   129602450.777        3368.185          41.000    24662524.427   100988783.440        2624.153          28.000  
G03  24181133.050   127072704.527       -3937.093          39.000    24181129.170    99017676.611       -3068.049          38.000  
> 2024 03 07 00 54 58.0000000  0 11                     
G04  21610357.929   113563189.280       -2797.150          45.000    21610350.777    88490770.875       -2179.624          43.000  
G06  21454900.894   112746255.613       -2069.229          46.000    21454895.890    87854209.967       -1612.571          43.000  
G07  22242884.480   116887137.157        2340.909          46.000    22242876.269    91080858.565        1824.062          41.000  
G09  20003986.664   105121649.981        -359.604          49.000    20003979.760    81912953.741        -280.129          44.000  
G11  22037555.372   115808126.918         521.014          44.000    22037547.214    90240070.213         405.993          43.000  
G16  23455166.208   123257718.141        1091.020          43.000                                                                  
G20  23285852.572   122367971.285        2972.487          42.000                                                                  
G26  23878509.012   125482398.326       -1425.330          44.000    23878504.080    97778423.878       -1110.736          33.000  
G29  25364923.639   133293561.625         810.921          41.000    25364916.311   103865066.812         631.866          37.000  
G30  24661887.412   129599082.851        3367.891          41.000    24661883.510   100986159.041        2624.810          28.000  
G03  24181882.171   127076641.474       -3937.239          39.000    24181878.336    99020744.349       -3067.826          38.000  
> 2024 03 07 00 54 59.0000000  0 11                     
G04  21610890.261   113565986.369       -2797.181          45.000    21610883.042    88492950.423       -2179.550          43.000  
G06  21455294.643   112748325.023       -2069.720          46.000    21455289.557    87855822.488       -1612.700          43.000  
G07  22242439.008   116884796.160        2340.956          46.000    22242430.864    91079034.415        1824.054          41.000  
G09  20004055.105   105122009.556        -359.757          49.000    20004048.167    81913233.931        -280.265          44.000  
G11  22037456.242   115807606.182         520.324          44.000    22037448.058    90239664.444         405.419          42.000  
G16  23454958.643   123256627.356        1090.558          43.000                                                                  
G20  23285286.989   122364998.749        2972.532          42.000                                                                  
G26  23878780.186   125483823.788       -1425.745          44.000    23878775.341    97779534.634       -1110.797          33.000  
G29  25364769.391   133292750.936         810.247          41.000    25364762.044   103864435.117         631.280          37.000  
G30  24661246.502   129595714.999        3368.085          41.000    24661242.598   100983534.796        2624.112          28.000  
G03  24182631.329   127080578.580       -3937.288          39.000    24182627.576    99023812.228       -3067.828          38.000  
> 2024 03 07 00 55 00.0000000  0 11                     
G04  21611422.656   113568783.870       -2797.758          45.000    21611415.473    88495130.294       -2180.078          43.000  
G06  21455688.624   112750395.157       -2070.476          46.000    21455683.523    87857435.572       -1613.121          43.000  
G07  22241993.586   116882455.655        2340.379          46.000    22241985.483    91077210.635        1823.917          41.000  
G09  20004123.709   105122369.747        -360.444          49.000    20004116.689    81913514.599        -280.867          44.000  
G11  22037357.217   115807086.231         519.770          44.000    22037349.083    90239259.303         404.619          42.000  
G16  23454751.195   123255537.325        1089.807          43.000                                                                  
G20  23284721.368   122362026.513        2972.119          41.000                                                                  
G26  23879051.660   125485250.017       -1426.489          44.000    23879046.745    97780645.971       -1111.597          33.000  
G29  25364615.256   133291940.942         809.733          41.000    25364607.959   103863803.942         631.049          36.000  
G30  24660605.752   129592347.350        3367.668          41.000    24660601.753   100980910.674        2623.782          28.000  
G03  24183380.701   127084515.929       -3937.442          38.000    24183376.827    99026880.304       -3068.252          37.000  
> 2024 03 07 00 55 01.0000000  0 11                     
G04  21611955.138   113571581.749       -2797.927          45.000    21611947.955    88497310.470       -2180.404          43.000  
G06  21456082.716   112752466.014       -2071.200          46.000    21456077.651    87859049.234       -1613.906          42.000  
G07  22241548.465   116880115.610        2340.001          46.000    22241540.179    91075387.231        1823.396          40.000  
G09  20004192.482   105122730.504        -361.033          49.000    20004185.274    81913795.711        -281.225          43.000  
G11  22037258.358   115806567.085         518.735          44.000    22037250.373    90238854.748         404.244          41.000  
G16  23454543.944   123254448.057        1088.902          43.000                                                                  
G20  23284155.780   122359054.577        2971.993          41.000                                                                  
G26  23879323.131   125486676.995       -1427.228          44.000    23879318.247    97781757.927       -1112.317          32.000  
G29  25364461.309   133291131.685         808.936          42.000    25364453.983   103863173.347         630.318          36.000  
G30  24659965.014   129588979.896        3367.192          41.000    24659961.172   100978286.657        2623.732          28.000  
G03  24184130.137   127088453.535       -3937.531          39.000    24184126.149    99029948.589       -3068.838          37.000  
> 2024 03 07 00 55 02.0000000  0 11                     
G04  21612487.687   113574380.069       -2798.625          45.000    21612480.492    88499490.971       -2180.781          44.000  
G06  21456476.960   112754537.642       -2072.253          46.000    21456471.909    87860663.468       -1614.357          44.000  
G07  22241103.197   116877776.074        2339.233          46.000    22241094.895    91073564.213        1822.839          41.000  
G09  20004261.198   105123091.895        -361.626          49.000    20004254.121    81914077.319        -281.828          45.000  
G11  22037159.820   115806048.744         518.007          44.000    22037151.748    90238450.852         403.589          43.000  
G16  23454336.765   123253359.575        1087.874          43.000                                                                  
G20  23283590.365   122356083.010        2971.482          41.000                                                                  
G26  23879594.822   125488104.771       -1428.235          44.000    23879589.932    97782870.462       -1113.074          33.000  
G29  25364307.523   133290323.159         808.169          42.000    25364300.152   103862543.340         629.954          37.000  
G30  24659324.206   129585612.643        3367.264          41.000    24659320.547   100975662.804        2624.121          29.000  
G03  24184879.570   127092391.427       -3938.141          39.000    24184875.498    99033017.056       -3068.628          38.000  
> 2024 03 07 00 55 03.0000000  0 11                     
G04  21613020.272   113577178.747       -2798.974          45.000    21613013.187    88501671.763       -2181.120          44.000  
G06  21456871.230   112756609.942       -2072.886          46.000    21456866.268    87862278.266       -1615.321          43.000  
G07  22240658.006   116875436.965        2338.839          46.000    22240649.811    91071741.533        1822.481          41.000  
G09  20004329.991   105123453.842        -362.278          49.000    20004323.119    81914359.358        -282.366          44.000  
G11  22037061.266   115805531.179         517.110          44.000    22037053.243    90238047.549         402.860          42.000  
G16  23454129.808   123252271.786        1087.433          43.000                                                                  
G20  23283025.044   122353111.702        2971.237          42.000                                                                  
G26  23879866.680   125489533.253       -1428.857          44.000    23879861.720    97783983.596       -1114.349          33.000  
G29  25364153.732   133289515.346         807.188          42.000    25364146.488   103861913.864         629.237          36.000  
G30  24658683.460   129582245.579        3366.692          41.000    24658680.082   100973039.140        2623.683          28.000  
G03  24185628.966   127096329.532       -3938.110          38.000    24185624.929    99036085.732       -3069.070          38.000  
> 2024 03 07 00 55 04.0000000  0 11                     
G04  21613552.866   113579977.879       -2799.463          45.000    21613545.829    88503852.903       -2181.406          44.000  
G06  21457265.704   112758683.037       -2073.547          46.000    21457260.897    87863893.676       -1615.963          43.000  
G07  22240212.992   116873098.392        2338.298          46.000    22240204.854    91069919.280        1821.969          41.000  
G09  20004398.925   105123816.447        -363.017          49.000    20004392.158    81914641.895        -282.626          44.000  
G11  22036962.988   115805014.456         516.388          44.000    22036954.845    90237644.907         402.271          43.000  
G16  23453922.934   123251184.836        1086.533          43.000                                                                  
G20  23282459.590   122350140.768        2970.900          42.000                                                                  
G26  23880138.621   125490962.548       -1429.645          44.000    23880133.662    97785097.316       -1114.386          33.000  
G29  25364000.146   133288708.298         806.638          42.000    25363992.993   103861285.017         628.768          36.000  
G30  24658042.746   129578878.751        3366.901          41.000    24658039.420   100970415.625        2623.735          29.000  
G03  24186378.306   127100267.968       -3938.769          38.000    24186374.439    99039154.609       -3069.100          38.000  
> 2024 03 07 00 55 05.0000000  0 11                     
G04  21614085.675   113582777.454       -2799.838          45.000    21614078.610    88506034.385       -2181.700          44.000  
G06  21457660.356   112760756.909       -2074.248          46.000    21457655.636    87865509.669       -1616.382          43.000  
G07  22239768.165   116870760.349        2337.720          46.000    22239759.939    91068097.413        1821.656          41.000  
G09  20004468.138   105124179.679        -363.467          49.000    20004461.338    81914924.940        -283.258          44.000  
G11  22036864.793   115804498.578         515.284          44.000    22036856.676    90237242.913         401.968          43.000  
G16  23453716.302   123250098.679        1085.813          43.000                                                                  
G20  23281894.442   122347170.203        2970.319          42.000                                                                  
G26  23880410.809   125492392.653       -1430.554          44.000    23880405.707    97786211.686       -1114.832          33.000  
G29  25363846.736   133287902.031         805.653          42.000    25363839.413   103860656.750         628.007          36.000  
G30  24657402.074   129575512.180        3366.506          41.000    24657398.917   100967792.303        2623.720          29.000  
G03  24187127.771   127104206.697       -3938.949          38.000    24187123.936    99042223.758       -3069.565          38.000  
> 2024 03 07 00 55 06.0000000  0 11                     
G04  21614618.380   113585577.326       -2800.139          45.000    21614611.363    88508216.094       -2181.819          44.000  
G06  21458055.139   112762831.404       -2075.111          46.000    21458050.242    87867126.154       -1616.926          43.000  
G07  22239323.291   116868422.637        2337.527          46.000    22239315.081    91066275.843        1821.338          41.000  
G09  20004537.212   105124543.406        -364.068          49.000    20004530.498    81915208.365        -283.626          45.000  
G11  22036766.611   115803983.382         514.643          44.000    22036758.529    90236841.468         401.060          43.000  
G16  23453509.778   123249013.192        1084.947          43.000                                                                  
G20  23281329.256   122344199.845        2969.958          42.000                                                                  
G26  23880683.062   125493823.397       -1431.110          44.000    23880677.878    97787326.552       -1115.405          33.000  
G29  25363693.389   133287096.353         805.282          42.000    25363686.061   103860028.993         627.255          36.000  
G30  24656761.477   129572145.698        3366.297          41.000    24656758.281   100965169.152        2622.737          28.000  
G03  24187877.277   127108145.562       -3939.415          38.000    24187873.453    99045292.975       -3069.284          38.000  
> 2024 03 07 00 55 07.0000000  0 11                     
G04  21615151.236   113588377.600       -2800.647          45.000    21615144.262    88510398.138       -2182.375          43.000  
G06  21458450.112   112764906.625       -2075.791          46.000    21458445.148    87868743.208       -1617.354          43.000  
G07  22238878.545   116866085.439        2336.849          46.000    22238870.437    91064454.656        1820.956          41.000  
G09  20004606.582   105124907.732        -364.764          49.000    20004599.867    81915492.267        -284.363          44.000  
G11  22036668.604   115803468.985         513.878          44.000    22036660.669    90236440.646         400.449          43.000  
G16  23453303.371   123247928.450        1084.233          43.000                                                                  
G20  23280764.075   122341229.789        2969.823          42.000                                                                  
G26  23880955.548   125495254.919       -1432.074          44.000    23880950.385    97788442.002       -1115.430          33.000  
G29  25363540.128   133286291.421         804.574          42.000    25363532.851   103859401.776         626.720          36.000  
G30  24656120.880   129568779.426        3365.903          41.000    24656117.565   100962546.039        2622.747          28.000  
G03  24188626.785   127112084.700       -3939.453          38.000    24188623.119    99048362.432       -3069.429          38.000  
> 2024 03 07 00 55 08.0000000  0 11                     
G04  21615684.067   113591178.202       -2800.865          45.000    21615677.162    88512580.422       -2182.522          43.000  
G06  21458845.218   112766982.501       -2076.292          46.000    21458840.189    87870360.780       -1617.961          43.000  
G07  22238433.792   116863748.646        2336.618          46.000    22238425.754    91062633.778        1820.865          41.000  
G09  20004676.022   105125272.592        -365.296          49.000    20004669.227    81915776.555        -284.429          44.000  
G11  22036570.824   115802955.316         513.116          44.000    22036562.993    90236040.393         399.767          43.000  
G16  23453097.071   123246844.397        1083.531          43.000                                                                  
G20  23280198.977   122338259.983        2969.641          42.000                                                                  
G26  23881228.037   125496687.118       -1432.654          44.000    23881222.963    97789557.988       -1115.436          33.000  
G29  25363387.154   133285487.153         803.824          42.000    25363379.827   103858775.038         626.823          36.000  
G30  24655480.319   129565413.296        3365.673          41.000    24655476.940   100959923.029        2623.177          28.000  
G03  24189376.434   127116023.999       -3939.067          38.000    24189372.792    99051432.051       -3069.725          37.000  
> 2024 03 07 00 55 09.0000000  0 11                     
G04  21616217.067   113593979.235       -2801.292          45.000    21616210.127    88514763.046       -2182.861          43.000  
G06  21459240.441   112769059.136       -2076.942          46.000    21459235.336    87871978.942       -1618.502          43.000  
G07  22237989.109   116861412.365        2336.021          46.000    22237981.205    91060813.310        1820.142          41.000  
G09  20004745.681   105125638.066        -365.686          49.000    20004738.741    81916061.346        -284.861          44.000  
G11  22036473.203   115802442.472         512.559          44.000    22036465.485    90235640.775         399.265          42.000  
G16  23452890.896   123245761.129        1082.885          43.000                                                                  
G20  23279633.911   122335290.525        2969.343          42.000                                                                  
G26  23881500.730   125498120.096       -1433.215          44.000    23881495.685    97790674.639       -1117.493          32.000  
G29  25363234.287   133284683.611         803.081          41.000    25363226.889   103858148.922         626.041          35.000  
G30  24654839.818   129562047.344        3365.987          41.000    24654836.275   100957300.272        2622.690          28.000  
G03  24190125.993   127119963.620       -3939.900          38.000    24190122.435    99054501.861       -3069.726          37.000  
> 2024 03 07 00 55 10.0000000  0 11                     
G04  21616750.180   113596780.764       -2801.695          45.000    21616743.237    88516946.052       -2183.055          43.000  
G06  21459635.751   112771136.617       -2077.689          46.000    21459630.689    87873597.752       -1619.160          43.000  
G07  22237544.668   116859076.659        2335.454          46.000    22237536.698    91058993.256        1820.104          41.000  
G09  20004815.341   105126004.240        -366.379          49.000    20004808.475    81916346.680        -285.528          44.000  
G11  22036375.759   115801930.528         511.521          44.000    22036367.970    90235241.848         398.742          43.000  
G16  23452684.891   123244678.733        1081.987          43.000                                                                  
G20  23279068.838   122332321.482        2968.903          42.000                                                                  
G26  23881773.492   125499553.950       -1434.265          44.000    23881768.481    97791791.910       -1117.993          33.000  
G29  25363081.594   133283880.908         802.225          41.000    25363074.245   103857523.431         625.365          36.000  
G30  24654199.370   129558681.735        3365.570          41.000    24654195.855   100954677.631        2623.181          28.000  
G03  24190875.737   127123903.577       -3940.083          38.000    24190872.143    99057571.952       -3070.212          37.000  
> 2024 03 07 00 55 11.0000000  0 11                     
G04  21617283.409   113599582.639       -2802.048          45.000    21617276.551    88519129.334       -2183.567          44.000  
G06  21460031.169   112773214.763       -2078.705          46.000    21460026.104    87875217.086       -1619.801          43.000  
G07  22237100.284   116856741.376        2334.924          46.000    22237092.338    91057173.583        1819.279          41.000  
G09  20004885.147   105126370.954        -367.064          49.000    20004878.159    81916632.425        -285.921          44.000  
G11  22036278.449   115801419.325         510.691          44.000    22036270.722    90234843.512         398.030          43.000  
G16  23452479.074   123243597.037        1081.267          43.000                                                                  
G20  23278503.916   122329352.688        2968.644          42.000                                                                  
G26  23882046.443   125500988.487       -1434.955          44.000    23882041.479    97792909.751       -1118.317          33.000  
G29  25362928.932   133283078.862         801.569          41.000    25362921.731   103856898.488         624.416          36.000  
G30  24653558.875   129555316.239        3365.353          41.000    24653555.388   100952055.247        2622.468          28.000  
G03  24191625.519   127127843.757       -3940.797          38.000    24191621.951    99060642.212       -3070.577          38.000  
> 2024 03 07 00 55 12.0000000  0 11                     
G04  21617816.756   113602384.912       -2802.524          45.000    21617809.820    88521312.916       -2183.724          44.000  
G06  21460426.742   112775293.623       -2079.374          46.000    21460421.756    87876836.974       -1620.150          43.000  
G07  22236656.044   116854406.556        2334.609          46.000    22236648.151    91055354.245        1818.885          41.000  
G09  20004955.048   105126738.260        -367.726          49.000    20004948.071    81916918.646        -286.553          44.000  
G11  22036181.313   115800908.908         509.932          44.000    22036173.574    90234445.787         397.443          43.000  
G16  23452273.550   123242516.094        1080.442          43.000                                                                  
G20  23277938.991   122326384.199        2968.347          42.000                                                                  
G26  23882319.554   125502423.783       -1435.614          44.000    23882314.605    97794028.151       -1117.938          32.000  
G29  25362776.513   133282277.532         800.983          41.000    25362769.311   103856274.077         623.754          37.000  
G30  24652918.510   129551950.955        3365.150          41.000    24652915.102   100949432.941        2622.025          28.000  
G03  24192375.376   127131784.117       -3940.440          39.000    24192371.707    99063712.642       -3070.599          38.000  
> 2024 03 07 00 55 13.0000000  0 11                     
G04  21618350.097   113605187.573       -2802.906          45.000    21618343.165    88523496.815       -2184.141          44.000  
G06  21460822.443   112777373.209       -2080.054          46.000    21460817.501    87878457.433       -1620.817          43.000  
G07  22236211.886   116852072.214        2334.121          46.000    22236203.923    91053535.254        1818.958          41.000  
G09  20005025.026   105127106.159        -368.202          49.000    20005018.019    81917205.310        -286.948          44.000  
G11  22036084.338   115800399.281         509.266          44.000    22036076.544    90234048.686         396.729          43.000  
G16  23452067.918   123241435.897        1079.939          43.000                                                                  
G20  23277374.193   122323416.037        2967.706          42.000                                                                  
G26  23882592.801   125503859.837       -1436.536          44.000    23882587.833    97795147.166       -1119.910          32.000  
G29  25362624.148   133281476.929         800.236          41.000    25362616.953   103855650.228         623.228          36.000  
G30  24652278.178   129548585.859        3365.116          41.000    24652274.748   100946810.807        2621.984          28.000  
G03  24193125.200   127135724.769       -3940.879          39.000    24193121.576    99066783.258       -3070.674          37.000  
> 2024 03 07 00 55 14.0000000  0 11                     
G04  21618883.512   113607990.755       -2803.350          45.000    21618876.578    88525681.093       -2184.260          44.000  
G06  21461218.367   112779453.656       -2080.914          46.000    21461213.236    87880078.544       -1621.347          43.000  
G07  22235767.877   116849738.464        2333.436          46.000    22235759.796    91051716.756        1818.503          41.000  
G09  20005095.157   105127474.769        -368.889          49.000    20005088.101    81917492.542        -287.420          44.000  
G11  22035987.644   115799890.576         508.252          44.000    22035979.793    90233652.278         396.169          43.000  
G16  23451862.508   123240356.585        1079.058          43.000                                                                  
G20  23276809.516   122320448.283        2967.585          42.000                                                                  
G26  23882866.268   125505296.758       -1437.463          44.000    23882861.196    97796266.849       -1120.251          32.000  
G29  25362471.901   133280677.171         799.454          41.000    25362464.758   103855027.033         623.053          36.000  
G30  24651637.956   129545221.083        3365.068          41.000    24651634.704   100944188.842        2622.769          28.000  
G03  24193875.273   127139665.805       -3940.929          39.000    24193871.435    99069854.205       -3070.885          37.000  
> 2024 03 07 00 55 15.0000000  0 11                     
G04  21619417.037   113610794.413       -2803.693          45.000    21619410.048    88527865.761       -2184.249          43.000  
G06  21461614.433   112781534.903       -2081.523          46.000    21461609.297    87881700.299       -1621.908          43.000  
G07  22235323.826   116847405.268        2333.135          46.000    22235315.788    91049898.694        1818.149          41.000  
G09  20005165.340   105127844.054        -369.354          49.000    20005158.342    81917780.304        -287.904          44.000  
G11  22035890.985   115799382.751         507.399          44.000    22035883.158    90233256.569         395.585          43.000  
G16  23451657.205   123239278.102        1078.296          43.000                                                                  
G20  23276244.863   122317480.931        2967.483          42.000                                                                  
G26  23883139.954   125506734.511       -1438.104          44.000    23883134.788    97797387.185       -1120.361          32.000  
G29  25362319.863   133279878.215         798.972          41.000    25362312.846   103854404.479         622.108          36.000  
G30  24650997.810   129541856.610        3364.523          41.000    24650994.521   100941567.247        2621.363          28.000  
G03  24194625.312   127143607.159       -3941.224          38.000    24194621.461    99072925.406       -3071.131          37.000  
> 2024 03 07 00 55 16.0000000  0 11                     
G04  21619950.737   113613598.342       -2804.044          45.000    21619943.557    88530050.658       -2185.088          43.000  
G06  21462010.519   112783616.738       -2082.003          46.000    21462005.519    87883322.516       -1622.375          42.000  
G07  22234879.942   116845072.430        2332.664          46.000    22234871.838    91048080.891        1817.866          41.000  
G09  20005235.709   105128213.805        -369.878          49.000    20005228.742    81918068.423        -288.383          44.000  
G11  22035794.513   115798875.588         506.696          44.000    22035786.627    90232861.378         394.858          42.000  
G16  23451452.108   123238200.248        1077.612          43.000                                                                  
G20  23275680.247   122314513.767        2967.052          42.000                                                                  
G26  23883413.607   125508172.888       -1438.544          44.000    23883408.637    97798508.016       -1121.814          32.000  
G29  25362167.886   133279079.866         797.761          41.000    25362160.958   103853782.366         621.852          36.000  
G30  24650357.600   129538492.182        3364.294          41.000    24650354.238   100938945.580        2621.428          28.000  
G03  24195375.191   127147548.655       -3941.453          38.000    24195371.485    99075996.695       -3071.594          37.000  
> 2024 03 07 00 55 17.0000000  0 11                     
G04  21620484.497   113616402.762       -2804.649          45.000    21620477.221    88532235.925       -2185.550          42.000  
G06  21462406.975   112785699.405       -2083.018          46.000    21462401.817    87884945.376       -1623.096          42.000  
G07  22234436.112   116842740.154        2331.909          46.000    22234428.000    91046263.529        1817.233          40.000  
G09  20005306.265   105128584.249        -370.750          49.000    20005299.310    81918357.072        -288.933          43.000  
G11  22035698.198   115798369.299         505.915          44.000    22035690.280    90232466.867         394.063          42.000  
G16  23451247.077   123237123.248        1076.559          43.000                                                                  
G20  23275115.641   122311546.999        2966.629          42.000                                                                  
G26  23883687.546   125509612.120       -1439.575          44.000    23883682.430    97799629.502       -1122.772          31.000  
G29  25362016.226   133278282.292         797.283          41.000    25362009.224   103853160.859         621.532          36.000  
G30  24649717.455   129535128.043        3364.203          41.000    24649714.127   100936324.157        2621.698          28.000  
G03  24196125.327   127151490.491       -3941.817          38.000    24196121.647    99079068.231       -3071.177          36.000  
> 2024 03 07 00 55 18.0000000  0 11                     
G04  21621018.260   113619207.597       -2804.983          45.000    21621010.987    88534421.512       -2185.892          44.000  
G06  21462803.496   112787782.821       -2083.889          46.000    21462798.308    87886568.810       -1623.678          44.000  
G07  22233992.367   116840408.364        2331.457          46.000    22233984.262    91044446.554        1816.797          41.000  
G09  20005376.880   105128955.308        -371.550          49.000    20005369.947    81918646.206        -289.422          45.000  
G11  22035602.085   115797863.831         505.037          44.000    22035594.170    90232073.000         393.434          43.000  
G16  23451042.315   123236047.027        1075.977          43.000                                                                  
G20  23274551.110   122308580.576        2966.206          42.000                                                                  
G26  23883961.578   125511052.136       -1440.393          45.000    23883956.448    97800751.551       -1122.430          32.000  
G29  25361864.579   133277485.468         796.261          41.000    25361857.618   103852539.983         620.653          36.000  
G30  24649077.318   129531764.129        3363.769          41.000    24649073.870   100933702.886        2621.657          28.000  
G03  24196875.426   127155432.617       -3942.197          38.000    24196871.787    99082140.043       -3072.012          37.000  
> 2024 03 07 00 55 19.0000000  0 11                     
G04  21621552.052   113622012.868       -2805.556          45.000    21621544.796    88536607.429       -2186.272          44.000  
G06  21463200.094   112789866.993       -2084.602          46.000    21463194.900    87888192.843       -1624.452          43.000  
G07  22233548.602   116838077.090        2330.967          46.000    22233540.657    91042629.971        1816.425          42.000  
G09  20005447.547   105129326.978        -372.095          49.000    20005440.740    81918935.828        -290.057          45.000  
G11  22035506.111   115797359.184         504.420          44.000    22035498.124    90231679.764         392.973          43.000  
G16  23450837.652   123234971.595        1075.092          43.000                                                                  
G20  23273986.674   122305614.487        2966.028          42.000                                                                  
G26  23884235.754   125512492.927       -1441.180          45.000    23884230.573    97801874.254       -1122.595          33.000  
G29  25361713.075   133276689.388         795.832          41.000    25361706.204   103851919.651         620.684          37.000  
G30  24648437.249   129528400.446        3363.546          41.000    24648433.829   100931081.903        2620.899          29.000  
G03  24197625.698   127159374.992       -3942.125          38.000    24197621.926    99085212.023       -3072.111          38.000  
> 2024 03 07 00 55 20.0000000  0 11                     
G04  21622085.936   113624818.541       -2806.055          45.000    21622078.765    88538793.672       -2186.437          44.000  
G06  21463596.774   112791951.906       -2085.614          46.000    21463591.609    87889817.438       -1624.899          43.000  
G07  22233105.060   116835746.309        2330.312          46.000    22233097.089    91040813.790        1815.925          42.000  
G09  20005518.378   105129699.262        -372.746          49.000    20005511.495    81919225.909        -290.365          45.000  
G11  22035410.255   115796855.364         503.071          44.000    22035402.302    90231287.176         392.118          43.000  
G16  23450633.187   123233896.935        1074.051          43.000                                                                  
G20  23273422.379   122302648.731        2965.618          42.000                                                                  
G26  23884510.120   125513934.487       -1442.114          45.000    23884504.897    97802997.534       -1123.676          33.000  
G29  25361561.742   133275894.062         794.923          41.000    25361554.825   103851299.952         619.357          37.000  
G30  24647797.210   129525036.976        3363.093          41.000    24647793.662   100928460.969        2621.201          29.000  
G03  24198375.919   127163317.673       -3942.995          38.000    24198372.134    99088284.232       -3071.969          38.000  
> 2024 03 07 00 55 21.0000000  0 11                     
G04  21622619.934   113627624.649       -2806.408          45.000    21622612.734    88540980.237       -2186.655          44.000  
G06  21463993.674   112794037.560       -2086.024          46.000    21463988.490    87891442.633       -1625.396          43.000  
G07  22232661.611   116833416.021        2330.055          46.000    22232653.705    91038997.982        1815.645          42.000  
G09  20005589.230   105130072.165        -373.252          49.000    20005582.433    81919516.493        -290.934          44.000  
G11  22035314.547   115796352.342         502.782          44.000    22035306.590    90230895.217         391.751          43.000  
G16  23450428.733   123232823.057        1073.349          43.000                                                                  
G20  23272858.133   122299683.316        2965.423          42.000                                                                  
G26  23884784.570   125515376.831       -1442.877          45.000    23884779.420    97804121.446       -1124.310          33.000  
G29  25361410.462   133275099.475         794.383          41.000    25361403.651   103850680.788         618.834          37.000  
G30  24647157.188   129521673.721        3363.224          41.000    24647153.678   100925840.291        2620.960          29.000  
G03  24199126.277   127167260.609       -3942.948          38.000    24199122.511    99091356.646       -3072.465          38.000  
> 2024 03 07 00 55 22.0000000  0 11                     
G04  21623153.989   113630431.034       -2806.676          45.000    21623146.789    88543167.032       -2186.941          44.000  
G06  21464390.605   112796123.841       -2086.558          46.000    21464385.573    87893068.309       -1625.930          43.000  
G07  22232218.191   116831086.093        2329.909          46.000    22232210.367    91037182.456        1815.328          41.000  
G09  20005660.314   105130445.544        -373.539          49.000    20005653.596    81919807.431        -291.193          44.000  
G11  22035219.003   115795850.025         501.969          44.000    22035211.004    90230503.789         391.324          43.000  
G16  23450224.409   123231749.814        1073.065          43.000                                                                  
G20  23272293.967   122296718.105        2965.098          42.000                                                                  
G26  23885059.115   125516819.816       -1443.335          45.000    23885053.999    97805245.873       -1125.238          33.000  
G29  25361259.378   133274305.503         793.544          41.000    25361252.592   103850062.101         618.429          36.000  
G30  24646517.115   129518310.558        3363.188          41.000    24646513.529   100923219.573        2621.447          28.000  
G03  24199876.575   127171203.693       -3942.997          38.000    24199872.852    99094429.186       -3072.616          37.000  
> 2024 03 07 00 55 23.0000000  0 11                     
G04  21623688.053   113633237.789       -2807.014          45.000    21623680.853    88545354.114       -2187.124          44.000  
G06  21464787.749   112798210.819       -2087.439          46.000    21464782.637    87894694.521       -1626.493          43.000  
G07  22231774.905   116828756.621        2329.191          46.000    22231767.090    91035367.292        1814.919          41.000  
G09  20005731.466   105130819.497        -374.338          49.000    20005724.742    81920098.824        -291.720          44.000  
G11  22035123.605   115795348.472         500.945          44.000    22035115.576    90230112.985         390.045          43.000  
G16  23450020.297   123230677.303        1072.191          43.000                                                                  
G20  23271729.722   122293753.181        2964.505          42.000                                                                  
G26  23885333.843   125518263.529       -1444.073          45.000    23885328.715    97806370.838       -1125.568          33.000  
G29  25361108.457   133273512.226         792.616          41.000    25361101.594   103849443.970         617.536          36.000  
G30  24645877.140   129514947.569        3362.839          41.000    24645873.509   100920599.110        2620.629          28.000  
G03  24200626.969   127175147.019       -3943.631          39.000    24200623.274    99097501.900       -3073.154          37.000  
> 2024 03 07 00 55 24.0000000  0 11                     
G04  21624222.187   113636044.908       -2807.479          45.000    21624214.971    88547541.487       -2187.620          44.000  
G06  21465185.045   112800298.485       -2088.137          46.000    21465179.958    87896321.280       -1627.130          43.000  
G07  22231331.716   116826427.586        2328.654          46.000    22231323.945    91033552.438        1814.804          41.000  
G09  20005802.739   105131194.015        -374.907          49.000    20005796.050    81920390.659        -292.187          45.000  
G11  22035028.230   115794847.664         500.272          44.000    22035020.201    90229722.729         389.931          43.000  
G16  23449816.369   123229605.520        1071.311          43.000                                                                  
G20  23271165.551   122290788.514        2964.563          42.000                                                                  
G26  23885608.677   125519707.964       -1445.032          45.000    23885603.574    97807496.359       -1125.903          33.000  
G29  25360957.627   133272719.624         792.215          41.000    25360950.787   103848826.336         617.442          35.000  
G30  24645237.271   129511584.746        3362.453          41.000    24645233.396   100917978.733        2620.408          28.000  
G03  24201377.365   127179090.554       -3943.947          39.000    24201373.735    99100574.780       -3073.180          37.000  
> 2024 03 07 00 55 25.0000000  0 11                     
G04  21624756.378   113638852.489       -2807.808          45.000    21624749.252    88549729.217       -2188.027          44.000  
G06  21465582.392   112802386.949       -2088.816          46.000    21465577.369    87897948.648       -1627.672          43.000  
G07  22230888.640   116824099.097        2328.300          46.000    22230880.818    91031738.041        1814.082          41.000  
G09  20005874.082   105131569.200        -375.524          49.000    20005867.394    81920682.997        -292.375          44.000  
G11  22034933.249   115794347.733         499.498          44.000    22034925.129    90229333.175         389.173          43.000  
G16  23449612.502   123228534.562        1070.541          43.000                                                                  
G20  23270601.462   122287824.241        2964.136          42.000                                                                  
G26  23885883.682   125521153.221       -1445.691          45.000    23885878.571    97808622.561       -1126.416          33.000  
G29  25360807.001   133271927.834         791.314          41.000    25360799.981   103848209.361         616.644          35.000  
G30  24644597.439   129508222.184        3362.304          41.000    24644593.502   100915358.540        2620.475          28.000  
G03  24202127.829   127183034.397       -3944.091          39.000    24202124.285    99103647.890       -3072.911          38.000  
> 2024 03 07 00 55 26.0000000  0 11                     
G04  21625290.771   113641660.273       -2808.079          45.000    21625283.614    88551917.099       -2188.074          43.000  
G06  21465979.932   112804475.944       -2089.319          46.000    21465974.775    87899576.429       -1627.974          42.000  
G07  22230445.663   116821770.874        2327.901          46.000    22230437.728    91029923.857        1813.656          41.000  
G09  20005945.523   105131944.759        -375.964          49.000    20005938.855    81920975.647        -292.894          44.000  
G11  22034838.239   115793848.392         498.833          44.000    22034830.007    90228944.074         388.868          42.000  
G16  23449408.867   123227464.161        1070.012          43.000                                                                  
G20  23270037.234   122284860.094        2963.871          42.000                                                                  
G26  23886158.889   125522599.039       -1446.320          45.000    23886153.749    97809749.185       -1127.692          33.000  
G29  25360656.370   133271136.540         790.791          41.000    25360649.372   103847592.782         616.104          35.000  
G30  24643957.597   129504859.621        3362.428          41.000    24643953.722   100912738.422        2619.661          28.000  
G03  24202878.280   127186978.302       -3944.214          39.000    24202874.718    99106721.082       -3073.398          37.000  
> 2024 03 07 00 55 27.0000000  0 11                     
G04  21625825.112   113644468.486       -2808.496          45.000    21625818.083    88554105.318       -2188.423          43.000  
G06  21466377.603   112806565.688       -2090.050          46.000    21466372.440    87901204.818       -1628.748          42.000  
G07  22230002.694   116819443.165        2327.463          46.000    22229994.817    91028110.063        1813.385          40.000  
G09  20006017.048   105132320.948        -376.351          49.000    20006010.456    81921268.787        -293.296          43.000  
G11  22034743.277   115793349.876         498.192          44.000    22034735.134    90228555.622         388.151          42.000  
G16  23449205.289   123226394.537        1069.354          43.000                                                                  
G20  23269473.177   122281896.279        2963.770          42.000                                                                  
G26  23886434.213   125524045.629       -1446.893          45.000    23886428.978    97810876.379       -1126.886          32.000  
G29  25360505.978   133270346.027         790.070          41.000    25360498.943   103846976.785         615.815          35.000  
G30  24643317.843   129501497.281        3362.350          41.000    24643313.891   100910118.366        2620.354          28.000  
G03  24203628.851   127190922.499       -3944.502          39.000    24203625.221    99109794.485       -3074.261          37.000  
> 2024 03 07 00 55 28.0000000  0 11                     
G04  21626359.563   113647277.093       -2808.781          45.000    21626352.541    88556293.842       -2188.725          43.000  
G06  21466775.536   112808656.171       -2090.835          46.000    21466770.256    87902833.748       -1629.139          43.000  
G07  22229559.883   116817115.942        2326.827          46.000    22229551.888    91026296.640        1813.155          41.000  
G09  20006088.841   105132697.748        -377.190          49.000    20006082.209    81921562.400        -294.025          45.000  
G11  22034648.538   115792852.154         497.594          44.000    22034640.409    90228167.802         387.301          43.000  
G16  23449001.965   123225325.689        1068.485          43.000                                                                  
G20  23268909.282   122278932.789        2963.168          41.000                                                                  
G26  23886709.587   125525492.996       -1447.729          45.000    23886704.420    97812004.193       -1128.265          33.000  
G29  25360355.615   133269556.240         789.330          41.000    25360348.680   103846361.387         615.134          36.000  
G30  24642678.023   129498135.158        3361.904          41.000    24642674.084   100907498.528        2620.179          28.000  
G03  24204379.383   127194866.942       -3944.635          39.000    24204375.748    99112868.060       -3073.854          37.000  
> 2024 03 07 00 55 29.0000000  0 11                     
G04  21626894.183   113650086.069       -2809.300          45.000    21626886.952    88558482.646       -2189.019          44.000  
G06  21467173.419   112810747.346       -2091.656          46.000    21467168.109    87904463.242       -1630.048          43.000  
G07  22229117.111   116814789.152        2326.478          46.000    22229109.115    91024483.554        1812.518          42.000  
G09  20006160.693   105133075.102        -377.727          49.000    20006153.923    81921856.437        -294.258          45.000  
G11  22034553.998   115792355.213         496.419          44.000    22034545.972    90227780.564         386.700          43.000  
G16  23448798.687   123224257.552        1067.749          43.000                                                                  
G20  23268345.270   122275969.555        2963.082          41.000                                                                  
G26  23886985.195   125526941.072       -1448.584          45.000    23886979.905    97813132.542       -1128.546          33.000  
G29  25360205.513   133268767.117         788.692          41.000    25360198.419   103845746.479         614.435          36.000  
G30  24642038.244   129494773.198        3361.543          41.000    24642034.312   100904878.861        2619.409          29.000  
G03  24205130.146   127198811.596       -3945.040          39.000    24205126.356    99115941.811       -3074.090          37.000  
> 2024 03 07 00 55 30.0000000  0 11                     
G04  21627428.863   113652895.396       -2809.666          45.000    21627421.470    88560671.733       -2189.274          44.000  
G06  21467571.440   112812839.204       -2092.299          46.000    21467566.228    87906093.257       -1630.300          43.000  
G07  22228674.494   116812462.799        2326.024          46.000    22228666.441    91022670.810        1812.414          42.000  
G09  20006232.643   105133453.001        -378.284          49.000    20006225.856    81922150.905        -294.789          45.000  
G11  22034459.539   115791859.015         495.687          44.000    22034451.599    90227393.911         386.217          43.000  
G16  23448595.608   123223190.147        1066.836          43.000                                                                  
G20  23267781.417   122273006.612        2962.716          42.000                                                                  
G26  23887260.932   125528389.864       -1449.353          45.000    23887255.583    97814261.458       -1128.955          34.000  
G29  25360055.432   133267978.682         787.866          42.000    25360048.339   103845132.118         613.967          36.000  
G30  24641398.628   129491411.386        3361.512          41.000    24641394.646   100902259.279        2619.218          29.000  
G03  24205880.847   127202756.461       -3944.783          39.000    24205877.072    99119015.734       -3074.250          37.000  
> 2024 03 07 00 55 31.0000000  0 11                     
G04  21627963.470   113655705.144       -2809.993          45.000    21627956.120    88562861.146       -2189.437          44.000  
G06  21467969.593   112814931.806       -2093.168          46.000    21467964.490    87907723.863       -1631.218          43.000  
G07  22228231.959   116810136.945        2325.610          46.000    22228223.770    91020858.452        1812.198          41.000  
G09  20006304.669   105133831.531        -379.006          49.000    20006297.874    81922445.862        -295.293          44.000  
G11  22034365.304   115791363.621         494.956          44.000    22034357.349    90227007.891         385.785          43.000  
G16  23448392.735   123222123.520        1066.106          43.000                                                                  
G20  23267217.617   122270044.003        2962.376          42.000                                                                  
G26  23887536.858   125529839.445       -1450.275          45.000    23887531.467    97815391.018       -1129.633          33.000  
G29  25359905.509   133267190.997         787.264          42.000    25359898.367   103844518.350         613.253          35.000  
G30  24640758.930   129488049.803        3361.152          41.000    24640754.923   100899639.796        2619.764          28.000  
G03  24206631.682   127206701.629       -3945.364          39.000    24206627.810    99122089.886       -3074.107          36.000  
> 2024 03 07 00 55 32.0000000  0 11                     
G04  21628498.148   113658515.369       -2810.522          46.000    21628490.844    88565050.930       -2189.934          44.000  
G06  21468367.881   112817025.215       -2093.889          46.000    21468362.926    87909355.087       -1631.780          43.000  
G07  22227789.400   116807811.637        2324.988          46.000    22227781.310    91019046.520        1811.922          41.000  
G09  20006376.854   105134210.727        -379.475          49.000    20006370.043    81922741.333        -295.631          44.000  
G11  22034271.199   115790869.119         494.083          44.000    22034263.278    90226622.567         385.037          43.000  
G16  23448190.030   123221057.735        1065.343          43.000                                                                  
G20  23266653.839   122267081.784        2962.046          42.000                                                                  
G26  23887812.919   125531289.829       -1450.781          45.000    23887807.538    97816521.213       -1130.707          33.000  
G29  25359755.769   133266404.115         786.536          41.000    25359748.534   103843905.165         613.458          36.000  
G30  24640119.270   129484688.492        3361.045          41.000    24640115.357   100897020.603        2619.506          28.000  
G03  24207382.440   127210647.092       -3945.346          39.000    24207378.585    99125164.297       -3074.700          36.000  
> 2024 03 07 00 55 33.0000000  0 11                     
G04  21629032.978   113661325.979       -2810.796          46.000    21629025.712    88567241.020       -2190.265          44.000  
G06  21468766.287   112819119.343       -2094.454          46.000    21468761.364    87910986.864       -1632.003          43.000  
G07  22227346.874   116805486.786        2324.573          46.000    22227338.914    91017234.954        1811.516          41.000  
G09  20006449.155   105134590.499        -379.958          49.000    20006442.263    81923037.265        -296.180          44.000  
G11  22034177.200   115790375.407         493.228          44.000    22034169.313    90226237.856         384.259          43.000  
G16  23447987.269   123219992.694        1064.586          43.000                                                                  
G20  23266090.095   122264119.876        2961.737          42.000                                                                  
G26  23888089.055   125532740.983       -1451.611          45.000    23888083.658    97817651.973       -1131.232          33.000  
G29  25359606.124   133265617.950         785.612          41.000    25359598.873   103843292.608         611.892          36.000  
G30  24639479.739   129481327.384        3360.654          41.000    24639475.757   100894401.581        2619.028          28.000  
G03  24208133.367   127214592.837       -3945.668          39.000    24208129.366    99128238.889       -3074.762          37.000  
> 2024 03 07 00 55 34.0000000  0 11                     
G04  21629567.911   113664136.885       -2810.958          46.000    21629560.546    88569431.332       -2190.330          44.000  
G06  21469164.938   112821214.091       -2094.937          46.000    21469160.080    87912619.134       -1632.460          43.000  
G07  22226904.566   116803162.324        2324.347          46.000    22226896.656    91015423.688        1810.972          41.000  
G09  20006521.476   105134970.769        -380.320          49.000    20006514.642    81923333.581        -296.430          44.000  
G11  22034083.360   115789882.363         492.938          44.000    22034075.451    90225853.668         383.976          43.000  
G16  23447784.907   123218928.314        1064.129          43.000                                                                  
G20  23265526.410   122261158.175        2961.701          42.000                                                                  
G26  23888365.267   125534192.773       -1451.977          45.000    23888359.890    97818783.239       -1131.500          33.000  
G29  25359456.664   133264832.403         785.372          41.000    25359449.333   103842680.496         612.132          36.000  
G30  24638840.123   129477966.353        3361.210          41.000    24638836.104   100891782.620        2619.036          28.000  
G03  24208884.188   127218538.706       -3945.385          39.000    24208880.115    99131313.625       -3074.881          37.000  
> 2024 03 07 00 55 35.0000000  0 11                     
G04  21630102.844   113666948.060       -2811.389          46.000    21630095.497    88571621.866       -2190.605          44.000  
G06  21469563.672   112823309.424       -2095.597          46.000    21469558.835    87914251.878       -1633.130          43.000  
G07  22226462.287   116800838.198        2323.946          46.000    22226454.389    91013612.674        1810.902          41.000  
G09  20006593.919   105135351.501        -380.896          49.000    20006587.113    81923630.245        -296.708          44.000  
G11  22033989.637   115789390.012         491.921          44.000    22033981.756    90225470.017         383.179          43.000  
G16  23447582.398   123217864.566        1063.291          43.000                                                                  
G20  23264962.930   122258196.662        2961.355          42.000                                                                  
G26  23888641.675   125535645.195       -1452.698          44.000    23888636.355    97819914.990       -1132.147          33.000  
G29  25359307.351   133264047.451         784.746          41.000    25359299.942   103842068.824         611.835          36.000  
G30  24638200.538   129474605.415        3360.761          41.000    24638196.484   100889163.660        2619.061          28.000  
G03  24209635.118   127222484.719       -3946.136          39.000    24209631.032    99134388.440       -3074.978          37.000  
> 2024 03 07 00 55 36.0000000  0 11                     
G04  21630637.836   113669759.621       -2811.873          46.000    21630630.546    88573812.685       -2190.943          44.000  
G06  21469962.533   112825405.498       -2096.454          46.000    21469957.695    87915885.173       -1633.754          43.000  
G07  22226020.158   116798514.545        2323.334          46.000    22226012.145    91011802.035        1810.597          41.000  
G09  20006666.557   105135732.826        -381.775          49.000    20006659.689    81923927.380        -297.398          44.000  
G11  22033896.073   115788898.423         491.202          44.000    22033888.269    90225086.949         382.876          43.000  
G16  23447380.139   123216801.559        1062.603          43.000                                                                  
G20  23264399.541   122255235.446        2961.152          42.000                                                                  
G26  23888918.258   125537098.362       -1453.668          44.000    23888912.851    97821047.281       -1132.080          34.000  
G29  25359158.171   133263263.200         784.157          41.000    25359150.637   103841457.740         610.641          36.000  
G30  24637560.925   129471244.646        3360.795          41.000    24637556.868   100886544.935        2618.251          28.000  
G03  24210386.096   127226430.970       -3946.517          39.000    24210381.960    99137463.416       -3074.997          37.000  
> 2024 03 07 00 55 37.0000000  0 11                     
G04  21631172.875   113672571.515       -2812.103          46.000    21631165.618    88576003.775       -2191.343          44.000  
G06  21470361.452   112827502.230       -2097.146          46.000    21470356.624    87917518.981       -1634.143          43.000  
G07  22225578.002   116796191.309        2323.031          46.000    22225570.072    91009991.730        1810.105          41.000  
G09  20006739.204   105136114.677        -382.257          49.000    20006732.382    81924224.937        -297.900          44.000  
G11  22033802.665   115788407.585         490.357          44.000    22033794.890    90224704.485         382.101          43.000  
G16  23447177.994   123215739.262        1061.716          43.000                                                                  
G20  23263836.017   122252274.495        2960.859          42.000                                                                  
G26  23889194.858   125538552.224       -1454.376          45.000    23889189.625    97822180.212       -1133.490          34.000  
G29  25359009.144   133262479.612         783.441          41.000    25359001.513   103840847.137         610.250          36.000  
G30  24636921.461   129467884.028        3360.366          41.000    24636917.192   100883926.226        2618.957          28.000  
G03  24211137.086   127230377.385       -3946.381          40.000    24211133.013    99140538.581       -3075.618          37.000  
> 2024 03 07 00 55 38.0000000  0 11                     
G04  21631708.002   113675383.757       -2812.371          45.000    21631700.904    88578195.124       -2191.346          44.000  
G06  21470760.630   112829599.628       -2097.750          46.000    21470755.838    87919153.322       -1634.747          43.000  
G07  22225136.091   116793868.507        2322.574          46.000    22225128.112    91008181.762        1809.633          41.000  
G09  20006811.935   105136497.073        -382.723          49.000    20006805.101    81924522.897        -298.201          44.000  
G11  22033709.495   115787917.487         489.840          44.000    22033701.560    90224322.576         381.950          43.000  
G16  23446976.020   123214677.664        1061.278          43.000                                                                  
G20  23263272.658   122249313.811        2960.544          42.000                                                                  
G26  23889471.773   125540006.785       -1454.864          44.000    23889466.409    97823313.653       -1134.076          33.000  
G29  25358860.143   133261696.720         782.428          41.000    25358852.531   103840237.073         610.106          36.000  
G30  24636282.076   129464523.556        3360.375          41.000    24636277.739   100881307.712        2618.511          28.000  
G03  24211888.220   127234324.020       -3946.549          39.000    24211884.077    99143613.872       -3075.272          37.000  
> 2024 03 07 00 55 39.0000000  0 11                     
G04  21632243.242   113678196.496       -2812.872          45.000    21632236.179    88580386.876       -2191.849          44.000  
G06  21471159.837   112831697.851       -2098.429          46.000    21471155.159    87920788.290       -1635.061          43.000  
G07  22224694.223   116791546.281        2321.985          46.000    22224686.157    91006372.211        1809.637          41.000  
G09  20006884.784   105136880.160        -383.372          49.000    20006877.994    81924821.413        -298.760          44.000  
G11  22033616.317   115787428.281         488.955          44.000    22033608.510    90223941.386         381.062          43.000  
G16  23446774.088   123213616.924        1060.435          43.000                                                                  
G20  23262709.267   122246353.539        2960.080          42.000                                                                  
G26  23889748.697   125541462.209       -1455.695          44.000    23889743.302    97824447.727       -1134.344          33.000  
G29  25358711.287   133260914.635         781.799          41.000    25358703.693   103839627.669         609.266          36.000  
G30  24635642.549   129461163.393        3360.039          41.000    24635638.290   100878689.379        2618.370          28.000  
G03  24212639.353   127238271.048       -3947.450          39.000    24212635.143    99146689.448       -3075.542          37.000  
> 2024 03 07 00 55 40.0000000  0 11                     
G04  21632778.556   113681009.523       -2813.310          45.000    21632771.554    88582578.843       -2192.212          44.000  
G06  21471559.173   112833796.700       -2099.250          46.000    21471554.556    87922423.767       -1635.942          43.000  
G07  22224252.329   116789224.416        2321.502          46.000    22224244.239    91004562.976        1809.185          41.000  
G09  20006957.786   105137263.725        -383.974          49.000    20006950.999    81925120.304        -299.275          44.000  
G11  22033523.380   115786939.765         487.961          43.000    22033515.527    90223560.726         380.475          43.000  
G16  23446572.381   123212556.844        1059.469          43.000                                                                  
G20  23262146.124   122243393.478        2959.692          42.000                                                                  
G26  23890025.657   125542918.276       -1456.567          44.000    23890020.427    97825582.325       -1135.150          33.000  
G29  25358562.557   133260133.168         781.010          41.000    25358555.056   103839018.721         608.694          36.000  
G30  24635003.139   129457803.301        3359.810          41.000    24634998.728   100876071.122        2618.201          28.000  
G03  24213390.464   127242218.169       -3947.556          39.000    24213386.228    99149765.131       -3075.925          37.000  
> 2024 03 07 00 55 41.0000000  0 11                     
G04  21633314.069   113683822.979       -2813.794          45.000    21633306.979    88584771.148       -2192.602          44.000  
G06  21471958.692   112835896.301       -2099.945          46.000    21471954.029    87924059.822       -1636.447          43.000  
G07  22223810.526   116786903.070        2320.927          46.000    22223802.539    91002754.140        1808.588          41.000  
G09  20007030.872   105137647.927        -384.504          49.000    20007024.217    81925419.671        -299.631          44.000  
G11  22033430.510   115786452.078         487.299          43.000    22033422.691    90223180.723         379.460          43.000  
G16  23446370.884   123211497.544        1058.916          43.000                                                                  
G20  23261582.956   122240433.739        2959.595          42.000                                                                  
G26  23890302.816   125544375.128       -1457.312          44.000    23890297.665    97826717.519       -1135.052          34.000  
G29  25358413.982   133259352.451         780.196          41.000    25358406.504   103838410.394         607.946          36.000  
G30  24634363.871   129454443.464        3359.396          41.000    24634359.389   100873453.095        2618.080          28.000  
G03  24214141.561   127246165.595       -3947.688          39.000    24214137.427    99152841.043       -3076.210          37.000  
> 2024 03 07 00 55 42.0000000  0 11                     
G04  21633849.573   113686636.829       -2814.125          45.000    21633842.355    88586963.773       -2192.983          44.000  
G06  21472358.379   112837996.640       -2100.868          46.000    21472353.726    87925696.447       -1637.286          43.000  
G07  22223368.837   116784582.195        2320.687          46.000    22223360.932    91000945.679        1808.279          41.000  
G09  20007104.117   105138032.734        -385.235          49.000    20007097.362    81925719.526        -300.187          44.000  
G11  22033337.782   115785965.192         486.515          43.000    22033329.971    90222801.321         379.115          43.000  
G16  23446169.476   123210439.037        1057.938          43.000                                                                  
G20  23261019.819   122237474.352        2959.102          42.000                                                                  
G26  23890580.152   125545832.744       -1458.118          44.000    23890575.105    97827853.318       -1135.529          34.000  
G29  25358265.571   133258572.469         779.573          41.000    25358258.059   103837802.587         607.398          36.000  
G30  24633724.489   129451083.816        3359.373          41.000    24633720.172   100870835.182        2618.017          28.000  
G03  24214892.881   127250113.274       -3948.036          39.000    24214888.710    99155917.184       -3076.839          37.000  
> 2024 03 07 00 55 43.0000000  0 11                     
G04  21634385.072   113689451.158       -2814.695          45.000    21634377.765    88589156.734       -2193.016          43.000  
G06  21472758.246   112840097.778       -2101.793          46.000    21472753.543    87927333.684       -1637.549          43.000  
G07  22222927.372   116782261.874        2320.070          46.000    22222919.269    90999137.633        1807.733          41.000  
G09  20007177.393   105138418.195        -385.863          49.000    20007170.652    81926019.886        -300.707          44.000  
G11  22033245.387   115785479.169         485.578          43.000    22033237.346    90222422.599         378.366          43.000  
G16  23445968.237   123209381.327        1057.336          43.000                                                                  
G20  23260456.845   122234515.342        2958.742          42.000                                                                  
G26  23890857.548   125547291.175       -1458.856          44.000    23890852.548    97828989.781       -1137.085          34.000  
G29  25358117.248   133257793.289         778.762          41.000    25358109.833   103837195.446         606.526          36.000  
G30  24633085.287   129447724.443        3359.208          41.000    24633080.851   100868217.506        2617.187          28.000  
G03  24215644.264   127254061.273       -3948.464          39.000    24215639.914    99158993.516       -3076.901          37.000  
> 2024 03 07 00 55 44.0000000  0 11                     
G04  21634920.648   113692265.826       -2814.957          45.000    21634913.337    88591349.986       -2193.358          44.000  
G06  21473158.199   112842199.569       -2102.103          46.000    21473153.514    87928971.451       -1637.993          43.000  
G07  22222485.941   116779941.985        2319.636          46.000    22222477.728    90997329.928        1807.613          41.000  
G09  20007250.831   105138804.205        -386.244          49.000    20007244.003    81926320.668        -300.952          44.000  
G11  22033153.014   115784993.893         484.956          43.000    22033144.992    90222044.465         377.803          43.000  
G16  23445767.156   123208324.342        1056.608          43.000                                                                  
G20  23259893.818   122231556.595        2958.615          42.000                                                                  
G26  23891135.226   125548750.315       -1459.412          44.000    23891130.315    97830126.767       -1137.244          34.000  
G29  25357969.052   133257014.763         778.294          41.000    25357961.630   103836588.783         606.754          36.000  
G30  24632445.905   129444365.206        3359.448          41.000    24632441.410   100865599.929        2617.367          28.000  
G03  24216395.639   127258009.446       -3947.734          39.000    24216391.253    99162070.045       -3076.868          37.000  
> 2024 03 07 00 55 45.0000000  0 11                     
G04  21635456.264   113695080.930       -2815.326          45.000    21635448.970    88593543.585       -2193.705          44.000  
G06  21473558.276   112844302.148       -2102.977          46.000    21473553.651    87930609.828       -1638.749          43.000  
G07  22222044.570   116777622.618        2318.976          46.000    22222036.329    90995522.620        1807.123          41.000  
G09  20007324.518   105139190.853        -386.943          49.000    20007317.539    81926621.968        -301.562          44.000  
G11  22033060.843   115784509.451         484.020          43.000    22033052.856    90221666.983         377.091          43.000  
G16  23445566.189   123207268.152        1056.076          43.000                                                                  
G20  23259330.895   122228598.210        2958.206          42.000                                                                  
G26  23891413.135   125550210.258       -1460.358          45.000    23891408.119    97831264.390       -1138.165          34.000  
G29  25357821.104   133256237.031         777.379          41.000    25357813.675   103835982.765         605.705          36.000  
G30  24631806.663   129441006.245        3358.706          41.000    24631802.183   100862982.570        2616.918          28.000  
G03  24217147.074   127261957.984       -3948.712          39.000    24217142.706    99165146.795       -3076.902          37.000  
> 2024 03 07 00 55 46.0000000  0 11                     
G04  21635991.978   113697896.404       -2815.814          45.000    21635984.722    88595737.456       -2194.059          43.000  
G06  21473958.580   112846405.414       -2103.726          46.000    21473953.826    87932248.738       -1639.457          43.000  
G07  22221603.280   116775303.677        2318.623          46.000    22221595.086    90993715.657        1806.868          41.000  
G09  20007398.241   105139578.060        -387.622          48.000    20007391.255    81926923.672        -301.958          44.000  
G11  22032968.823   115784025.775         483.218          43.000    22032960.795    90221290.089         376.648          42.000  
G16  23445365.349   123206212.710        1054.826          43.000                                                                  
G20  23258767.958   122225640.105        2957.868          42.000                                                                  
G26  23891691.101   125551670.910       -1461.176          44.000    23891686.116    97832402.559       -1138.208          34.000  
G29  25357673.264   133255459.972         776.646          41.000    25357665.868   103835377.269         605.368          36.000  
G30  24631167.507   129437647.427        3358.642          41.000    24631163.034   100860365.241        2617.387          28.000  
G03  24217898.456   127265906.733       -3949.473          39.000    24217894.091    99168223.722       -3077.092          37.000  
> 2024 03 07 00 55 47.0000000  0 11                     
G04  21636527.820   113700712.139       -2815.958          45.000    21636520.601    88597931.526       -2193.998          43.000  
G06  21474359.022   112848509.276       -2104.130          46.000    21474354.127    87933888.109       -1639.655          42.000  
G07  22221162.129   116772985.092        2318.468          46.000    22221153.945    90991908.974        1806.478          40.000  
G09  20007471.984   105139965.735        -388.046          48.000    20007465.017    81927225.761        -302.427          43.000  
G11  22032876.954   115783542.775         482.531          43.000    22032868.895    90220913.718         376.059          42.000  
G16  23445164.504   123205157.883        1054.324          43.000                                                                  
G20  23258205.153   122222682.194        2957.828          43.000                                                                  
G26  23891969.084   125553132.190       -1461.529          45.000    23891964.356    97833541.215       -1138.702          33.000  
G29  25357525.563   133254683.504         776.237          41.000    25357518.130   103834772.260         604.690          35.000  
G30  24630528.356   129434288.692        3358.523          41.000    24630523.887   100857748.124        2616.786          27.000  
G03  24218649.833   127269855.554       -3948.968          39.000    24218645.658    99171300.722       -3076.680          36.000  
> 2024 03 07 00 55 48.0000000  0 11                     
G04  21637063.825   113703528.257       -2816.337          46.000    21637056.450    88600125.911       -2194.565          43.000  
G06  21474759.541   112850613.852       -2105.056          46.000    21474754.593    87935528.030       -1640.389          42.000  
G07  22220721.029   116770666.979        2317.760          46.000    22220712.800    90990102.664        1805.866          40.000  
G09  20007545.893   105140353.979        -388.587          49.000    20007538.953    81927528.281        -302.658          43.000  
G11  22032785.206   115783060.535         481.859          44.000    22032777.178    90220537.970         375.254          42.000  
G16  23444963.905   123204103.798        1053.549          43.000                                                                  
G20  23257642.311   122219724.574        2957.293          43.000                                                                  
G26  23892247.268   125554594.216       -1462.408          45.000    23892242.661    97834680.449       -1139.471          33.000  
G29  25357377.961   133253907.765         775.456          41.000    25357370.513   103834167.790         603.828          35.000  
G30  24629889.231   129430930.135        3358.271          41.000    24629884.718   100855131.026        2617.235          27.000  
G03  24219401.363   127273804.640       -3949.437          39.000    24219397.173    99174377.952       -3077.433          36.000  
> 2024 03 07 00 55 49.0000000  0 11                     
G04  21637599.837   113706344.747       -2816.531          46.000    21637592.513    88602320.579       -2194.816          44.000  
G06  21475160.136   112852719.122       -2105.597          46.000    21475155.309    87937168.497       -1640.759          43.000  
G07  22220279.993   116768349.322        2317.674          46.000    22220271.672    90988296.656        1806.068          41.000  
G09  20007619.872   105140742.790        -388.853          49.000    20007612.860    81927831.264        -302.995          45.000  
G11  22032693.612   115782579.080         481.205          44.000    22032685.515    90220162.799         375.021          43.000  
G16  23444763.478   123203050.433        1053.169          43.000                                                                  
G20  23257079.501   122216767.245        2957.117          43.000                                                                  
G26  23892525.729   125556056.971       -1463.055          45.000    23892521.115    97835820.260       -1139.630          34.000  
G29  25357230.547   133253132.714         774.796          41.000    25357223.048   103833563.838         603.548          36.000  
G30  24629250.118   129427571.743        3358.437          41.000    24629245.597   100852514.094        2617.305          28.000  
G03  24220152.881   127277753.932       -3949.396          39.000    24220148.741    99177455.326       -3077.590          37.000  
> 2024 03 07 00 55 50.0000000  0 11                     
G04  21638135.925   113709161.678       -2817.143          46.000    21638128.586    88604515.590       -2195.106          44.000  
G06  21475560.831   112854825.154       -2106.315          46.000    21475556.099    87938809.563       -1641.295          44.000  
G07  22219839.027   116766032.177        2316.923          46.000    22219830.670    90986491.100        1805.506          41.000  
G09  20007693.968   105141132.250        -389.638          49.000    20007686.936    81928134.744        -303.796          45.000  
G11  22032602.051   115782098.470         480.254          44.000    22032594.041    90219788.300         374.172          43.000  
G16  23444563.191   123201997.903        1052.239          43.000                                                                  
G20  23256516.867   122213810.266        2956.909          43.000                                                                  
G26  23892804.141   125557520.509       -1463.708          45.000    23892799.680    97836960.695       -1140.338          35.000  
G29  25357083.175   133252358.427         773.935          40.000    25357075.761   103832960.508         603.038          36.000  
G30  24628611.130   129424213.602        3358.167          41.000    24628606.367   100849897.373        2616.265          28.000  
G03  24220904.402   127281703.522       -3949.427          39.000    24220900.317    99180532.942       -3077.883          38.000  
> 2024 03 07 00 55 51.0000000  0 11                     
G04  21638672.088   113711979.049       -2817.678          46.000    21638664.764    88606710.941       -2195.708          44.000  
G06  21475961.780   112856931.958       -2107.146          46.000    21475956.981    87940451.235       -1642.122          44.000  
G07  22219398.177   116763715.564        2316.153          46.000    22219389.876    90984685.951        1804.812          41.000  
G09  20007768.150   105141522.345        -390.547          49.000    20007761.250    81928438.706        -304.302          45.000  
G11  22032510.736   115781618.692         479.271          44.000    22032502.829    90219414.443         373.553          43.000  
G16  23444362.959   123200946.167        1051.119          43.000                                                                  
G20  23255954.228   122210853.659        2956.382          42.000                                                                  
G26  23893082.882   125558984.874       -1465.039          45.000    23893078.354    97838101.733       -1141.241          35.000  
G29  25356935.939   133251584.913         773.109          40.000    25356928.566   103832357.788         602.048          36.000  
G30  24627972.115   129420855.708        3357.905          41.000    24627967.416   100847280.831        2616.222          28.000  
G03  24221656.139   127285653.449       -3950.071          39.000    24221651.969    99183610.772       -3077.956          37.000  
> 2024 03 07 00 55 52.0000000  0 11                     
G04  21639208.386   113714796.760       -2817.809          46.000    21639200.896    88608906.555       -2195.636          44.000  
G06  21476362.966   112859039.441       -2107.700          46.000    21476358.081    87942093.428       -1642.520          43.000  
G07  22218957.243   116761399.357        2316.060          46.000    22218949.068    90982881.103        1805.034          41.000  
G09  20007842.451   105141912.971        -390.782          49.000    20007835.603    81928743.089        -304.432          45.000  
G11  22032419.429   115781139.647         478.961          44.000    22032411.549    90219041.172         373.065          43.000  
G16  23444162.862   123199895.109        1051.102          43.000                                                                  
G20  23255391.766   122207897.312        2956.250          42.000                                                                  
G26  23893361.733   125560449.908       -1465.277          45.000    23893357.163    97839243.327       -1141.522          35.000  
G29  25356788.858   133250812.075         772.739          40.000    25356781.463   103831755.563         601.783          36.000  
G30  24627333.142   129417497.974        3357.732          41.000    24627328.380   100844664.383        2616.595          28.000  
G03  24222407.801   127289603.523       -3949.878          39.000    24222403.651    99186688.780       -3078.208          37.000  
> 2024 03 07 00 55 53.0000000  0 11                     
G04  21639744.568   113717614.896       -2818.365          45.000    21639737.158    88611102.511       -2196.202          43.000  
G06  21476764.100   112861147.678       -2108.787          46.000    21476759.295    87943736.210       -1643.405          43.000  
G07  22218516.677   116759083.669        2315.368          46.000    22218508.515    90981076.683        1804.179          41.000  
G09  20007916.868   105142304.233        -391.627          49.000    20007910.017    81929047.974        -305.417          44.000  
G11  22032328.346   115780661.457         477.698          44.000    22032320.573    90218668.540         372.300          43.000  
G16  23443963.046   123198844.876        1049.790          43.000                                                                  
G20  23254829.258   122204941.313        2955.756          42.000                                                                  
G26  23893640.665   125561915.747       -1466.296          45.000    23893636.154    97840385.540       -1142.621          35.000  
G29  25356641.907   133250039.982         771.689          41.000    25356634.530   103831153.922         601.144          36.000  
G30  24626694.307   129414140.457        3357.262          41.000    24626689.379   100842048.150        2616.326          28.000  
G03  24223159.474   127293553.916       -3950.437          39.000    24223155.328    99189766.999       -3078.629          37.000  
> 2024 03 07 00 55 54.0000000  0 11                     
G04  21640280.888   113720433.503       -2818.615          45.000    21640273.570    88613298.830       -2196.389          44.000  
G06  21477165.500   112863256.708       -2109.260          46.000    21477160.570    87945379.604       -1643.740          43.000  
G07  22218076.113   116756768.538        2314.867          46.000    22218067.886    90979272.677        1803.770          41.000  
G09  20007991.384   105142696.153        -392.100          49.000    20007984.719    81929353.359        -305.568          45.000  
G11  22032237.555   115780184.118         477.092          44.000    22032229.735    90218296.595         371.571          43.000  
G16  23443763.427   123197795.465        1049.115          43.000                                                                  
G20  23254266.758   122201985.696        2955.581          42.000                                                                  
G26  23893919.783   125563382.406       -1466.986          45.000    23893915.263    97841528.388       -1142.902          35.000  
G29  25356495.206   133249268.680         771.300          41.000    25356487.764   103830552.900         600.841          36.000  
G30  24626055.481   129410783.217        3357.330          41.000    24626050.559   100839432.055        2618.056          28.000  
G03  24223911.317   127297504.626       -3950.675          39.000    24223907.190    99192845.470       -3078.537          37.000  
> 2024 03 07 00 55 55.0000000  0 11                     
G04  21640817.348   113723252.542       -2819.041          45.000    21640810.154    88615495.469       -2196.505          44.000  
G06  21477566.952   112865366.495       -2109.961          46.000    21477562.137    87947023.599       -1644.240          43.000  
G07  22217635.621   116754453.899        2314.671          46.000    22217627.438    90977469.068        1803.584          41.000  
G09  20008066.121   105143088.706        -392.548          49.000    20008059.437    81929659.247        -305.928          44.000  
G11  22032146.871   115779707.611         476.283          44.000    22032138.993    90217925.291         371.067          43.000  
G16  23443563.932   123196746.841        1048.399          43.000                                                                  
G20  23253704.392   122199030.435        2955.271          42.000                                                                  
G26  23894199.043   125564849.849       -1467.712          45.000    23894194.562    97842671.834       -1142.975          34.000  
G29  25356348.601   133248498.152         770.364          41.000    25356341.101   103829952.490         600.521          36.000  
G30  24625416.707   129407426.212        3356.914          41.000    24625411.842   100836816.281        2616.095          29.000  
G03  24224663.218   127301455.622       -3950.879          39.000    24224659.024    99195924.160       -3078.622          37.000  
> 2024 03 07 00 55 56.0000000  0 11                     
G04  21641353.835   113726071.844       -2819.258          45.000    21641346.658    88617692.330       -2196.825          44.000  
G06  21477968.589   112867476.870       -2110.593          46.000    21477963.747    87948668.035       -1644.404          43.000  
G07  22217195.345   116752139.617        2314.147          46.000    22217187.101    90975665.727        1803.326          41.000  
G09  20008140.880   105143481.734        -393.201          49.000    20008134.298    81929965.495        -306.482          44.000  
G11  22032056.226   115779231.772         475.423          44.000    22032048.598    90217554.500         370.590          43.000  
G16  23443364.587   123195698.854        1047.685          43.000                                                                  
G20  23253142.072   122196075.357        2955.016          42.000                                                                  
G26  23894478.459   125566317.913       -1468.323          45.000    23894473.860    97843815.818       -1144.177          35.000  
G29  25356202.061   133247728.205         769.806          41.000    25356194.635   103829352.563         599.777          36.000  
G30  24624778.024   129404069.281        3356.842          41.000    24624773.278   100834200.516        2615.659          29.000  
G03  24225415.148   127305406.745       -3951.035          39.000    24225410.904    99199002.945       -3078.597          37.000  
> 2024 03 07 00 55 57.0000000  0 11                     
G04  21641890.386   113728891.382       -2819.812          45.000    21641883.126    88619889.382       -2197.379          44.000  
G06  21478370.312   112869587.828       -2111.465          46.000    21478365.373    87950312.945       -1645.287          43.000  
G07  22216755.027   116749825.662        2313.593          46.000    22216746.777    90973862.637        1803.073          41.000  
G09  20008215.738   105143875.185        -393.992          49.000    20008209.146    81930272.085        -306.996          44.000  
G11  22031965.679   115778756.566         474.719          44.000    22031958.166    90217184.211         370.064          43.000  
G16  23443165.263   123194651.464        1046.954          43.000                                                                  
G20  23252579.757   122193120.426        2954.816          42.000                                                                  
G26  23894757.914   125567786.586       -1469.171          45.000    23894753.251    97844960.221       -1144.922          35.000  
G29  25356055.578   133246958.840         768.882          41.000    25356048.358   103828753.055         599.044          36.000  
G30  24624139.286   129400712.389        3356.690          41.000    24624134.459   100831584.712        2615.789          29.000  
G03  24226166.992   127309357.921       -3950.953          39.000    24226162.803    99202081.807       -3078.710          37.000  
> 2024 03 07 00 55 58.0000000  0 11                     
G04  21642427.007   113731711.437       -2819.953          45.000    21642419.731    88622086.825       -2197.387          44.000  
G06  21478772.187   112871699.619       -2111.865          46.000    21478767.242    87951958.493       -1645.790          43.000  
G07  22216314.898   116747512.297        2313.316          45.000    22216306.513    90972060.022        1802.568          41.000  
G09  20008290.699   105144269.354        -394.415          49.000    20008284.202    81930579.241        -307.422          44.000  
G11  22031875.427   115778282.275         474.167          44.000    22031867.959    90216814.645         369.356          43.000  
G16  23442965.911   123193604.962        1046.282          43.000                                                                  
G20  23252017.398   122190165.944        2954.697          42.000                                                                  
G26  23895037.571   125569256.116       -1469.653          45.000    23895032.915    97846105.303       -1144.763          34.000  
G29  25355909.390   133246190.318         768.303          41.000    25355902.052   103828154.206         598.800          36.000  
G30  24623500.479   129397355.815        3356.866          41.000    24623495.763   100828969.188        2616.159          29.000  
G03  24226919.009   127313309.518       -3951.619          40.000    24226914.597    99205160.976       -3079.411          36.000  
> 2024 03 07 00 55 59.0000000  0 11                     
G04  21642963.698   113734531.917       -2820.553          45.000    21642956.493    88624284.602       -2197.787          43.000  
G06  21479174.140   112873812.174       -2112.765          46.000    21479169.273    87953604.644       -1646.560          43.000  
G07  22215874.749   116745199.438        2312.813          45.000    22215866.336    90970257.791        1802.425          41.000  
G09  20008365.879   105144664.134        -394.880          49.000    20008359.342    81930886.856        -307.784          44.000  
G11  22031785.331   115777808.807         473.297          44.000    22031777.903    90216445.710         368.622          43.000  
G16  23442766.890   123192559.246        1045.452          43.000                                                                  
G20  23251455.183   122187211.804        2954.213          42.000                                                                  
G26  23895317.385   125570726.435       -1470.660          45.000    23895312.688    97847251.017       -1145.941          34.000  
G29  25355763.236   133245422.528         767.630          41.000    25355755.853   103827555.925         598.435          36.000  
G30  24622861.803   129393999.496        3356.097          41.000    24622857.093   100826353.919        2615.260          29.000  
G03  24227671.005   127317261.366       -3951.833          40.000    24227666.506    99208240.331       -3079.416          36.000  
> 2024 03 07 00 56 00.0000000  0 11                     
G04  21643500.405   113737352.672       -2820.792          45.000    21643493.094    88626482.591       -2197.887          44.000  
G06  21479576.147   112875925.328       -2113.365          46.000    21479571.311    87955251.258       -1647.078          43.000  
G07  22215434.699   116742886.917        2312.435          45.000    22215426.348    90968455.861        1801.907          41.000  
G09  20008441.186   105145059.405        -395.438          49.000    20008434.512    81931194.849        -307.990          44.000  
G11  22031695.400   115777336.031         472.567          44.000    22031687.883    90216077.305         368.163          43.000  
G16  23442567.941   123191514.168        1044.922          43.000                                                                  
G20  23250893.145   122184257.873        2954.041          42.000                                                                  
G26  23895597.322   125572197.392       -1471.197          45.000    23895592.588    97848397.213       -1146.503          34.000  
G29  25355617.355   133244655.354         767.003          41.000    25355609.839   103826958.133         597.844          36.000  
G30  24622223.045   129390643.240        3356.417          41.000    24622218.341   100823738.643        2615.435          29.000  
G03  24228423.122   127321213.366       -3951.777          40.000    24228418.551    99211319.800       -3079.163          36.000  
> 2024 03 07 00 56 01.0000000  0 11                     
G04  21644037.339   113740173.743       -2821.358          45.000    21644029.910    88628680.839       -2198.561          43.000  
G06  21479978.426   112878039.110       -2114.050          46.000    21479973.540    87956898.348       -1647.401          43.000  
G07  22214994.614   116740574.818        2311.772          46.000    22214986.345    90966654.214        1801.362          41.000  
G09  20008516.365   105145455.168        -396.153          49.000    20008509.852    81931503.246        -308.782          44.000  
G11  22031605.606   115776863.947         471.802          44.000    22031598.004    90215709.458         367.358          43.000  
G16  23442369.264   123190469.760        1044.067          43.000                                                                  
G20  23250331.235   122181304.163        2953.490          43.000                                                                  
G26  23895877.405   125573669.013       -1472.003          45.000    23895872.566    97849543.935       -1147.003          34.000  
G29  25355471.433   133243888.817         765.907          41.000    25355464.029   103826360.829         596.880          36.000  
G30  24621584.285   129387287.105        3355.890          41.000    24621579.740   100821123.451        2615.241          29.000  
G03  24229175.243   127325165.520       -3952.506          39.000    24229170.679    99214399.397       -3079.864          36.000  
> 2024 03 07 00 56 02.0000000  0 11                     
G04  21644574.232   113742995.287       -2821.580          45.000    21644566.789    88630879.438       -2198.619          43.000  
G06  21480380.861   112880153.715       -2114.913          46.000    21480375.939    87958546.092       -1647.964          42.000  
G07  22214554.686   116738263.261        2311.700          46.000    22214546.493    90964853.016        1801.167          40.000  
G09  20008591.741   105145851.608        -396.490          48.000    20008585.177    81931812.154        -308.983          44.000  
G11  22031515.974   115776392.757         471.232          44.000    22031508.357    90215342.281         367.250          42.000  
G16  23442170.591   123189426.209        1043.385          43.000                                                                  
G20  23249769.178   122178350.856        2953.349          43.000                                                                  
G26  23896157.645   125575141.473       -1472.717          45.000    23896152.705    97850691.306       -1147.491          34.000  
G29  25355325.706   133243123.072         765.677          41.000    25355318.386   103825764.154         596.431          36.000  
G30  24620945.666   129383931.246        3355.926          41.000    24620941.036   100818508.494        2615.118          28.000  
G03  24229927.355   127329117.999       -3952.052          39.000    24229922.946    99217479.254       -3079.847          36.000  
> 2024 03 07 00 56 03.0000000  0 11                     
G04  21645111.129   113745817.208       -2822.053          45.000    21645103.783    88633078.347       -2199.255          43.000  
G06  21480783.420   112882269.026       -2115.740          46.000    21480778.470    87960194.390       -1648.711          43.000  
G07  22214114.895   116735952.191        2310.782          46.000    22214106.635    90963052.186        1800.424          41.000  
G09  20008667.323   105146248.637        -397.411          49.000    20008660.663    81932121.524        -309.476          44.000  
G11  22031426.516   115775922.350         469.953          44.000    22031418.805    90214975.732         366.190          43.000  
G16  23441972.220   123188383.396        1042.320          44.000                                                                  
G20  23249207.258   122175397.846        2952.888          43.000                                                                  
G26  23896438.006   125576614.678       -1473.688          45.000    23896433.022    97851839.267       -1148.157          34.000  
G29  25355180.114   133242358.058         764.801          40.000    25355172.794   103825168.027         596.046          36.000  
G30  24620307.153   129380575.586        3355.447          41.000    24620302.593   100815893.709        2614.949          29.000  
G03  24230679.556   127333070.755       -3953.274          39.000    24230675.135    99220559.316       -3080.009          36.000  
> 2024 03 07 00 56 04.0000000  0 11                     
G04  21645648.109   113748639.477       -2822.411          45.000    21645640.883    88635277.515       -2199.465          43.000  
G06  21481186.059   112884384.998       -2116.350          46.000    21481181.111    87961843.192       -1649.071          43.000  
G07  22213675.237   116733641.541        2310.289          46.000    22213666.905    90961251.674        1800.114          41.000  
G09  20008743.021   105146646.199        -397.805          49.000    20008736.347    81932431.318        -309.951          44.000  
G11  22031337.180   115775452.681         469.313          44.000    22031329.300    90214609.760         365.606          43.000  
G16  23441773.918   123187341.298        1041.531          44.000                                                                  
G20  23248645.405   122172445.116        2952.411          42.000                                                                  
G26  23896718.372   125578088.561       -1474.121          45.000    23896713.589    97852987.753       -1149.316          34.000  
G29  25355034.655   133241593.721         764.017          40.000    25355027.373   103824572.459         595.170          36.000  
G30  24619668.533   129377220.048        3355.550          41.000    24619664.075   100813279.047        2614.361          29.000  
G03  24231431.847   127337023.645       -3952.909          40.000    24231427.367    99223639.508       -3079.912          36.000  
> 2024 03 07 00 56 05.0000000  0 11                     
G04  21646185.234   113751462.208       -2822.780          45.000    21646178.029    88637477.037       -2199.602          44.000  
G06  21481588.875   112886501.762       -2117.091          46.000    21481583.891    87963492.617       -1649.384          43.000  
G07  22213235.585   116731331.433        2309.874          46.000    22213227.243    90959451.581        1800.047          41.000  
G09  20008818.761   105147044.424        -398.422          49.000    20008812.130    81932741.616        -310.290          44.000  
G11  22031247.940   115774983.875         468.502          44.000    22031240.238    90214244.455         365.014          43.000  
G16  23441575.837   123186300.009        1040.984          44.000                                                                  
G20  23248083.604   122169492.749        2952.208          42.000                                                                  
G26  23896998.969   125579563.287       -1474.927          45.000    23896994.242    97854136.877       -1149.469          34.000  
G29  25354889.292   133240830.189         763.074          40.000    25354882.071   103823977.491         594.541          36.000  
G30  24619030.047   129373864.792        3355.260          41.000    24619025.575   100810664.567        2614.322          29.000  
G03  24232184.101   127340976.909       -3953.324          40.000    24232179.601    99226719.989       -3080.507          36.000  
> 2024 03 07 00 56 06.0000000  0 11                     
G04  21646722.419   113754285.313       -2823.167          45.000    21646715.189    88639676.860       -2199.819          44.000  
G06  21481991.764   112888619.245       -2117.726          46.000    21481986.820    87965142.608       -1650.183          43.000  
G07  22212796.054   116729021.787        2309.418          46.000    22212787.689    90957651.874        1799.306          41.000  
G09  20008894.650   105147443.231        -399.076          49.000    20008888.102    81933052.379        -310.910          44.000  
G11  22031158.938   115774515.847         467.706          44.000    22031151.188    90213879.758         364.365          43.000  
G16  23441377.833   123185259.477        1040.233          44.000                                                                  
G20  23247521.871   122166540.683        2951.978          42.000                                                                  
G26  23897279.796   125581038.738       -1475.653          45.000    23897274.926    97855286.572       -1149.988          34.000  
G29  25354744.104   133240067.321         762.674          40.000    25354736.928   103823383.086         593.773          36.000  
G30  24618391.617   129370509.729        3354.992          41.000    24618387.100   100808050.215        2614.189          29.000  
G03  24232936.430   127344930.400       -3953.607          40.000    24232931.921    99229800.624       -3080.875          36.000  
> 2024 03 07 00 56 07.0000000  0 11                     
G04  21647259.726   113757108.785       -2823.584          45.000    21647252.388    88641876.953       -2199.979          43.000  
G06  21482394.821   112890737.399       -2118.479          46.000    21482389.960    87966793.116       -1650.735          43.000  
G07  22212356.628   116726712.590        2308.909          46.000    22212348.175    90955852.485        1799.274          41.000  
G09  20008970.713   105147842.597        -399.706          49.000    20008964.104    81933363.572        -311.412          44.000  
G11  22031070.084   115774048.586         466.998          44.000    22031062.265    90213515.651         363.912          43.000  
G16  23441180.123   123184219.673        1039.365          44.000                                                                  
G20  23246960.216   122163588.898        2951.683          42.000                                                                  
G26  23897560.727   125582514.927       -1476.794          45.000    23897555.777    97856436.856       -1151.007          34.000  
G29  25354599.005   133239305.163         762.034          40.000    25354591.887   103822789.180         593.519          36.000  
G30  24617753.135   129367154.834        3354.713          41.000    24617748.586   100805435.974        2614.290          29.000  
G03  24233688.839   127348884.076       -3953.638          40.000    24233684.175    99232881.367       -3080.319          36.000  
> 2024 03 07 00 56 08.0000000  0 11                     
G04  21647797.147   113759932.734       -2824.278          45.000    21647789.791    88644077.450       -2200.838          43.000  
G06  21482798.011   112892856.373       -2119.442          46.000    21482793.169    87968444.267       -1651.565          43.000  
G07  22211917.378   116724403.948        2308.186          46.000    22211908.836    90954053.543        1798.685          41.000  
G09  20009046.808   105148242.624        -400.591          49.000    20009040.154    81933675.292        -312.212          44.000  
G11  22030981.364   115773582.207         465.730          44.000    22030973.669    90213152.233         363.037          43.000  
G16  23440982.444   123183180.702        1038.432          44.000                                                                  
G20  23246398.681   122160637.512        2951.114          42.000                                                                  
G26  23897841.657   125583991.929       -1477.539          45.000    23897836.822    97857587.765       -1150.891          34.000  
G29  25354454.109   133238543.829         760.745          40.000    25354447.090   103822195.900         593.231          36.000  
G30  24617114.736   129363800.219        3354.347          41.000    24617110.216   100802822.016        2613.687          29.000  
G03  24234441.296   127352838.103       -3953.962          40.000    24234436.626    99235962.468       -3081.313          36.000  
> 2024 03 07 00 56 09.0000000  0 11                     
G04  21648334.603   113762757.062       -2824.475          45.000    21648327.240    88646278.226       -2200.963          43.000  
G06  21483201.437   112894976.057       -2119.937          46.000    21483196.538    87970095.965       -1651.752          43.000  
G07  22211478.228   116722095.776        2308.037          46.000    22211469.658    90952254.987        1798.245          41.000  
G09  20009123.038   105148643.254        -400.871          49.000    20009116.418    81933987.465        -312.412          44.000  
G11  22030892.856   115773116.612         465.127          44.000    22030885.194    90212789.439         362.479          43.000  
G16  23440784.932   123182142.489        1037.932          44.000                                                                  
G20  23245837.126   122157686.442        2951.037          42.000                                                                  
G26  23898122.860   125585469.684       -1478.046          45.000    23898118.091    97858739.254       -1151.691          34.000  
G29  25354309.390   133237783.179         760.593          40.000    25354302.241   103821603.203         592.367          36.000  
G30  24616476.475   129360445.793        3354.251          41.000    24616472.019   100800208.179        2613.808          29.000  
G03  24235193.724   127356792.401       -3954.798          39.000    24235189.023    99239043.722       -3081.223          36.000  
> 2024 03 07 00 56 10.0000000  0 11                     
G04  21648872.012   113765581.740       -2825.018          45.000    21648864.694    88648479.266       -2201.200          44.000  
G06  21483605.010   112897096.420       -2120.864          46.000    21483600.024    87971748.186       -1652.441          43.000  
G07  22211039.097   116719788.033        2307.356          46.000    22211030.532    90950456.741        1797.709          41.000  
G09  20009199.339   105149044.416        -401.590          49.000    20009192.741    81934300.063        -313.030          44.000  
G11  22030804.449   115772651.754         464.179          44.000    22030796.643    90212427.210         361.837          43.000  
G16  23440587.435   123181104.974        1037.058          43.000                                                                  
G20  23245275.639   122154735.641        2950.446          42.000                                                                  
G26  23898404.253   125586948.130       -1478.979          45.000    23898399.424    97859891.305       -1152.503          34.000  
G29  25354164.796   133237023.220         759.501          41.000    25354157.647   103821011.018         591.707          36.000  
G30  24615838.136   129357091.520        3354.070          41.000    24615833.694   100797594.488        2613.052          29.000  
G03  24235946.153   127360746.852       -3954.833          39.000    24235941.424    99242125.105       -3081.530          36.000  
> 2024 03 07 00 56 11.0000000  0 11                     
G04  21649409.632   113768406.654       -2825.326          46.000    21649402.239    88650680.496       -2201.520          44.000  
G06  21484008.661   112899217.344       -2121.396          46.000    21484003.659    87973400.859       -1652.970          43.000  
G07  22210599.951   116717480.589        2307.231          46.000    22210591.458    90948658.740        1797.614          41.000  
G09  20009275.755   105149446.017        -401.902          49.000    20009269.074    81934612.992        -313.111          44.000  
G11  22030716.148   115772187.542         463.660          44.000    22030708.313    90212065.484         361.189          43.000  
G16  23440390.030   123180068.074        1036.342          43.000                                                                  
G20  23244714.117   122151784.991        2950.242          42.000                                                                  
G26  23898685.649   125588427.184       -1479.498          45.000    23898680.899    97861043.813       -1153.009          34.000  
G29  25354020.230   133236263.823         759.076          41.000    25354013.140   103820419.293         591.128          36.000  
G30  24615199.913   129353737.306        3353.898          41.000    24615195.350   100794980.766        2613.973          30.000  
G03  24236698.622   127364701.417       -3954.706          39.000    24236693.982    99245206.606       -3081.806          36.000  
> 2024 03 07 00 56 12.0000000  0 11                     
G04  21649947.316   113771232.180       -2825.916          45.000    21649939.913    88652882.209       -2202.024          44.000  
G06  21484412.393   112901339.214       -2122.383          46.000    21484407.312    87975054.261       -1653.771          43.000  
G07  22210160.955   116715173.846        2306.419          46.000    22210152.520    90946861.272        1797.135          41.000  
G09  20009352.338   105149848.445        -402.755          49.000    20009345.661    81934926.569        -313.667          44.000  
G11  22030628.050   115771724.346         462.638          44.000    22030620.272    90211704.562         360.384          43.000  
G16  23440192.851   123179032.154        1035.410          43.000                                                                  
G20  23244152.754   122148834.880        2949.758          42.000                                                                  
G26  23898967.234   125589907.209       -1480.481          45.000    23898962.545    97862197.069       -1153.595          34.000  
G29  25353875.813   133235505.382         757.999          41.000    25353868.841   103819828.297         590.741          36.000  
G30  24614561.708   129350383.499        3353.677          41.000    24614557.005   100792367.427        2613.872          30.000  
G03  24237451.278   127368656.465       -3955.294          39.000    24237446.564    99248288.451       -3082.201          35.000  
> 2024 03 07 00 56 13.0000000  0 11                     
G04  21650485.056   113774058.033       -2826.112          46.000    21650477.641    88655084.164       -2202.127          44.000  
G06  21484816.346   112903461.745       -2123.027          46.000    21484811.313    87976708.186       -1654.377          43.000  
G07  22209722.073   116712867.508        2306.121          46.000    22209713.626    90945064.132        1796.866          41.000  
G09  20009428.968   105150251.390        -403.288          49.000    20009422.341    81935240.562        -314.314          45.000  
G11  22030540.081   115771261.877         461.952          44.000    22030532.199    90211344.192         360.010          43.000  
G16  23439995.791   123177996.942        1034.575          43.000                                                                  
G20  23243591.395   122145885.012        2949.684          42.000                                                                  
G26  23899248.972   125591387.920       -1481.164          45.000    23899244.305    97863350.869       -1153.821          34.000  
G29  25353731.650   133234747.583         757.343          41.000    25353724.613   103819237.806         589.966          36.000  
G30  24613923.400   129347029.813        3353.478          40.000    24613918.779   100789754.186        2612.843          30.000  
G03  24238204.051   127372611.701       -3955.558          39.000    24238199.183    99251370.448       -3082.544          35.000  
> 2024 03 07 00 56 14.0000000  0 11                     
G04  21651022.792   113776884.224       -2826.532          45.000    21651015.498    88657286.393       -2202.401          44.000  
G06  21485220.408   112905584.933       -2123.702          46.000    21485215.377    87978362.612       -1654.769          43.000  
G07  22209283.188   116710561.595        2305.578          46.000    22209274.898    90943267.311        1796.432          41.000  
G09  20009505.800   105150654.874        -404.031          49.000    20009499.210    81935554.959        -314.802          44.000  
G11  22030452.204   115770800.146         461.332          44.000    22030444.346    90210984.390         359.524          43.000  
G16  23439798.905   123176962.413        1033.989          43.000                                                                  
G20  23243030.016   122142935.417        2949.244          42.000                                                                  
G26  23899530.915   125592869.323       -1481.946          45.000    23899526.155    97864505.208       -1154.803          34.000  
G29  25353587.440   133233990.450         756.653          40.000    25353580.533   103818647.828         589.960          36.000  
G30  24613285.249   129343676.303        3353.133          40.000    24613280.684   100787141.070        2612.708          29.000  
G03  24238956.718   127376567.094       -3955.431          39.000    24238951.812    99254452.575       -3082.276          35.000  
> 2024 03 07 00 56 15.0000000  0 11                     
G04  21651560.712   113779710.863       -2826.904          45.000    21651553.318    88659488.972       -2202.909          44.000  
G06  21485624.572   112907708.891       -2124.364          46.000    21485619.603    87980017.653       -1655.429          43.000  
G07  22208844.443   116708256.210        2305.188          45.000    22208836.201    90941470.891        1796.500          41.000  
G09  20009582.722   105151058.983        -404.408          49.000    20009576.135    81935869.853        -315.193          44.000  
G11  22030364.488   115770339.261         460.489          44.000    22030356.739    90210625.269         358.947          43.000  
G16  23439602.233   123175928.703        1033.262          43.000                                                                  
G20  23242468.713   122139986.179        2949.131          42.000                                                                  
G26  23899812.950   125594351.535       -1482.501          45.000    23899808.142    97865660.188       -1155.243          34.000  
G29  25353443.495   133233234.103         756.162          40.000    25353436.617   103818058.478         589.265          36.000  
G30  24612647.154   129340323.024        3353.078          40.000    24612642.500   100784528.109        2613.054          29.000  
G03  24239709.554   127380522.817       -3955.896          39.000    24239704.577    99257534.965       -3082.557          35.000  
> 2024 03 07 00 56 16.0000000  0 11                     
G04  21652098.652   113782537.860       -2827.147          45.000    21652091.237    88661691.827       -2202.948          44.000  
G06  21486028.818   112909833.550       -2124.960          46.000    21486023.847    87981673.231       -1655.780          43.000  
G07  22208405.843   116705951.289        2304.661          45.000    22208397.602    90939674.864        1795.775          41.000  
G09  20009659.729   105151463.678        -404.959          49.000    20009653.174    81936185.197        -315.586          44.000  
G11  22030276.989   115769879.159         459.593          44.000    22030269.244    90210266.744         358.261          43.000  
G16  23439405.741   123174895.743        1032.456          43.000                                                                  
G20  23241907.544   122137037.250        2948.721          42.000                                                                  
G26  23900095.098   125595834.470       -1483.319          45.000    23900090.275    97866815.697       -1155.231          34.000  
G29  25353299.702   133232478.489         754.987          41.000    25353292.773   103817469.701         588.454          36.000  
G30  24612008.973   129336969.925        3352.934          41.000    24612004.411   100781915.343        2612.183          30.000  
G03  24240462.284   127384478.747       -3956.097          39.000    24240457.364    99260617.536       -3082.980          35.000  
> 2024 03 07 00 56 17.0000000  0 11                     
G04  21652636.721   113785365.155       -2827.682          46.000    21652629.351    88663894.917       -2203.421          43.000  
G06  21486433.276   112911958.832       -2125.885          45.000    21486428.273    87983329.287       -1656.361          43.000  
G07  22207967.327   116703646.722        2304.062          46.000    22207959.084    90937879.109        1795.175          41.000  
G09  20009736.887   105151868.852        -405.741          49.000    20009730.268    81936500.921        -316.137          44.000  
G11  22030189.545   115769419.733         458.791          44.000    22030181.804    90209908.768         357.290          43.000  
G16  23439209.305   123173863.426        1031.564          43.000                                                                  
G20  23241346.493   122134088.506        2948.484          42.000                                                                  
G26  23900377.369   125597318.061       -1484.387          45.000    23900372.468    97867971.756       -1156.543          34.000  
G29  25353155.963   133231723.440         754.483          41.000    25353149.096   103816881.355         587.881          37.000  
G30  24611370.907   129333616.929        3352.717          41.000    24611366.393   100779302.578        2612.177          30.000  
G03  24241215.114   127388434.837       -3956.599          39.000    24241210.205    99263700.176       -3082.701          35.000  
